[{"place_id": "ChIJozG2zkmLGGARC59Lvq6JVBo", "name": "LAIDBACKS", "address": "港区南青山７丁目１０−９ ＢＡＲＢＩＺＯＮ５４ １F", "lat": 35.6590145, "lng": 139.7188603, "rating": 4.8, "user_ratings_total": 102, "business_status": "OPERATIONAL", "category": "dogfriendly"}, {"place_id": "ChIJv_6xoAOJGGARSbSaRzZUO5A", "name": "Chill Cafe Tokyo", "address": "中央区勝どき４丁目８−２", "lat": 35.6570463, "lng": 139.7758828, "rating": 4.6, "user_ratings_total": 104, "business_status": "OPERATIONAL", "category": "dogfriendly"}, {"place_id": "ChIJ1U2ymQ2NGGARt7BeHqk-igc", "name": "珈琲らぴす", "address": "渋谷区神宮前２丁目２６−４", "lat": 35.674052, "lng": 139.7102899, "rating": 5, "user_ratings_total": 37, "business_status": "OPERATIONAL", "category": "dogfriendly"}, {"place_id": "ChIJkXYIhCSLGGAR-cTftg4yU64", "name": "Kunisuke Coffee", "address": "中央区築地６丁目２７−５", "lat": 35.6638551, "lng": 139.7711023, "rating": 4.6, "user_ratings_total": 238, "business_status": "OPERATIONAL", "category": "dogfriendly"}, {"place_id": "ChIJr8cO9RyNGGART_yBNuqgGlU", "name": "Cafe VG", "address": "新宿区西早稲田１丁目１−８", "lat": 35.7072878, "lng": 139.7193257, "rating": 4.4, "user_ratings_total": 106, "business_status": "OPERATIONAL", "category": "dogfriendly"}, {"place_id": "ChIJZxoEOfeNGGARBnqCJhamags", "name": "CAFÉ 33", "address": "千代田区北の丸公園１−１", "lat": 35.6923876, "lng": 139.7493978, "rating": 3.8, "user_ratings_total": 170, "business_status": "OPERATIONAL", "category": "dogfriendly"}, {"place_id": "ChIJ6THNFQCLGGARJQRqzJuB1Vs", "name": "Cafe toi toi toi", "address": "港区西麻布２丁目１８−１３ ベンチスタ 1A", "lat": 35.6619596, "lng": 139.7189699, "rating": 4.8, "user_ratings_total": 36, "business_status": "OPERATIONAL", "category": "dogfriendly"}, {"place_id": "ChIJZy2XZNeJGGARlRcCEKxTyqE", "name": "iki Roastery & Eatery", "address": "江東区常盤１丁目４−７", "lat": 35.6845048, "lng": 139.7939427, "rating": 4, "user_ratings_total": 626, "business_status": "OPERATIONAL", "category": "dogfriendly"}, {"place_id": "ChIJa4UKsmeJGGARctf3zP4htL4", "name": "ノーベンバー", "address": "中央区湊２丁目１６−２６−１０１", "lat": 35.6716112, "lng": 139.7810766, "rating": 3.5, "user_ratings_total": 33, "business_status": "OPERATIONAL", "category": "dogfriendly"}, {"place_id": "ChIJkauTGR6PGGARzD7HqglONAo", "name": "marble 蔵前", "address": "台東区蔵前４丁目１−４ トマック第３ビル 1F", "lat": 35.7018917, "lng": 139.7887728, "rating": 4.1, "user_ratings_total": 206, "business_status": "OPERATIONAL", "category": "dogfriendly"}, {"place_id": "ChIJqYkZqwmLGGARWH0L5rBEEGk", "name": "NEON NEON TOKYO CAFE", "address": "港区三田４丁目１−４", "lat": 35.6477509, "lng": 139.7414155, "rating": 4.6, "user_ratings_total": 15, "business_status": "OPERATIONAL", "category": "dogfriendly"}, {"place_id": "ChIJQ1tKAwCLGGARHQ0ntqW9mfE", "name": "NINE9+", "address": "港区六本木６丁目１０−１ ヒルサイド B1", "lat": 35.6604523, "lng": 139.7292314, "rating": 3.8, "user_ratings_total": 70, "business_status": "OPERATIONAL", "category": "dogfriendly"}, {"place_id": "ChIJO68IZb6LGGAR36lEFBtMQeg", "name": "JMT CAFE DAIKANYAMA", "address": "渋谷区鶯谷町２−７ エクセルビル 1F", "lat": 35.6536054, "lng": 139.7045598, "rating": 4.5, "user_ratings_total": 40, "business_status": "OPERATIONAL", "category": "dogfriendly"}, {"place_id": "ChIJe_u1OQCLGGAREvydGKUB4Ro", "name": "ANDY COFFEE", "address": "渋谷区代官山町１１−１ 1F", "lat": 35.6509281, "lng": 139.7038916, "rating": 4.3, "user_ratings_total": 143, "business_status": "OPERATIONAL", "category": "dogfriendly"}, {"place_id": "ChIJ3eMvMxaLGGARkwhkPPVc3DQ", "name": "ROAR COFFEE Azabujuban", "address": "港区麻布十番２丁目４−１０ 1階", "lat": 35.6557681, "lng": 139.7346766, "rating": 4.7, "user_ratings_total": 40, "business_status": "OPERATIONAL", "category": "dogfriendly"}, {"place_id": "ChIJfVmFVo-LGGAR-Tu3DwrPqsY", "name": "アレヴェリー テラス", "address": "渋谷区広尾１丁目１−３９ 1F", "lat": 35.6502398, "lng": 139.7125248, "rating": 3.9, "user_ratings_total": 244, "business_status": "OPERATIONAL", "category": "dogfriendly"}, {"place_id": "ChIJhfV-Sm2LGGARetVvei3H-Fw", "name": "Breakfast & Brunch Jade5", "address": "渋谷区広尾５丁目１７−６", "lat": 35.6494749, "lng": 139.7205573, "rating": 4.4, "user_ratings_total": 691, "business_status": "OPERATIONAL", "category": "dogfriendly"}, {"place_id": "ChIJM6UqIRiNGGARlvSviBSio-Y", "name": "TREE by NAKED Meiji Park", "address": "渋谷区神宮前２丁目２−３９ THE COURT 神宮外苑 1F", "lat": 35.6746024, "lng": 139.7139374, "rating": 4.4, "user_ratings_total": 161, "business_status": "OPERATIONAL", "category": "dogfriendly"}, {"place_id": "ChIJDaa89BeNGGAR9y02HGJQqI8", "name": "OKA808", "address": "新宿区西早稲田１丁目１４−１４", "lat": 35.7121391, "lng": 139.7202141, "rating": 4.6, "user_ratings_total": 18, "business_status": "OPERATIONAL", "category": "dogfriendly"}, {"place_id": "ChIJg-u_pcmPGGARCzyB9RJoObY", "name": "エゾ デリ", "address": "台東区浅草橋１丁目２６−６ 1F", "lat": 35.6984537, "lng": 139.7836802, "rating": 4, "user_ratings_total": 49, "business_status": "OPERATIONAL", "category": "dogfriendly"}, {"place_id": "ChIJi7t6Z0SLGGARWJ8xLE-9lRk", "name": "ミスター・フレンドリー カフェ", "address": "渋谷区恵比寿西２丁目１８−６ SPビル 1F", "lat": 35.6497065, "lng": 139.7052302, "rating": 4.1, "user_ratings_total": 228, "business_status": "OPERATIONAL", "category": "dogfriendly"}, {"place_id": "ChIJE4haZkKNGGARIzHcPdmkEzY", "name": "原宿乃豆柴カフェ", "address": "渋谷区神宮前１丁目６−１０ ３F", "lat": 35.67094670000001, "lng": 139.7055971, "rating": 3.6, "user_ratings_total": 955, "business_status": "OPERATIONAL", "category": "dogfriendly"}, {"place_id": "ChIJSUKtesKJGGARhRK7v5qlQ3w", "name": "リキマルカフェ", "address": "中央区月島３丁目１５−３", "lat": 35.6621493, "lng": 139.7801361, "rating": 4.5, "user_ratings_total": 48, "business_status": "OPERATIONAL", "category": "dogfriendly"}, {"place_id": "ChIJHxXvBESNGGARhw99VVctFIU", "name": "グリーンビーンズコーヒー", "address": "渋谷区千駄ケ谷３丁目３０−１ RC APARTMENT1F", "lat": 35.6775167, "lng": 139.7078346, "rating": 4.8, "user_ratings_total": 491, "business_status": "OPERATIONAL", "category": "dogfriendly"}, {"place_id": "ChIJozS-RMOMGGARCS7xu5mi_P4", "name": "BOWLS cafe", "address": "新宿区新宿２丁目５−１６ 霞ビル", "lat": 35.6890958, "lng": 139.7071504, "rating": 4.2, "user_ratings_total": 239, "business_status": "OPERATIONAL", "category": "dogfriendly"}, {"place_id": "ChIJFRPMeqKPGGARUw0LwJKDSNo", "name": "浅草の豆柴カフェ", "address": "台東区浅草１丁目２９−３", "lat": 35.71206919999999, "lng": 139.7951343, "rating": 3.5, "user_ratings_total": 940, "business_status": "OPERATIONAL", "category": "dogfriendly"}, {"place_id": "ChIJJdw9jhqMGGARNFLl3eHPFOo", "name": "カフェ インクルージョン", "address": "千代田区神田駿河台３丁目７−８ 神田旅館組合ビル １F", "lat": 35.6959027, "lng": 139.7635213, "rating": 4.7, "user_ratings_total": 22, "business_status": "OPERATIONAL", "category": "dogfriendly"}, {"place_id": "ChIJ___PzN-LGGARz5GUw1B-l5I", "name": "インクスカフェ", "address": "中央区湊３丁目４−８", "lat": 35.6696319, "lng": 139.777827, "rating": 3.8, "user_ratings_total": 36, "business_status": "OPERATIONAL", "category": "dogfriendly"}, {"place_id": "ChIJh7CHNpSNGGARCSaXuKdrpF0", "name": "benchmark TOKYO", "address": "渋谷区千駄ケ谷２丁目３３−１０ DAVISONビル 1F", "lat": 35.6764666, "lng": 139.7124891, "rating": 4.9, "user_ratings_total": 132, "business_status": "OPERATIONAL", "category": "dogfriendly"}, {"place_id": "ChIJj9GGZiaPGGARUV8w0rnQJ9s", "name": "コーヒーとホットドックのお店 Bock 御徒町", "address": "台東区台東３丁目４０−６ PKビル 1Ｆ", "lat": 35.7053843, "lng": 139.7768797, "rating": 4.7, "user_ratings_total": 124, "business_status": "OPERATIONAL", "category": "dogfriendly"}, {"place_id": "ChIJq9NTrbuLGGARI8uAtRhVja4", "name": "Petcook 〈ペットクック〉", "address": "港区南麻布４丁目５−５５", "lat": 35.6499124, "lng": 139.7240607, "rating": 5, "user_ratings_total": 15, "business_status": "OPERATIONAL", "category": "dogfriendly"}, {"place_id": "ChIJjasZLsKNGGAR1P0-paBB_Hw", "name": "カフェ ビーログ", "address": "新宿区大久保１丁目１４−２６ 1F", "lat": 35.6999308, "lng": 139.7039408, "rating": 4, "user_ratings_total": 66, "business_status": "OPERATIONAL", "category": "dogfriendly"}, {"place_id": "ChIJCYSr8F6LGGARzLlm9UM6Asg", "name": "Rural Dog$", "address": "渋谷区渋谷２丁目２−６", "lat": 35.6600963, "lng": 139.7086794, "rating": 0, "user_ratings_total": 0, "business_status": "OPERATIONAL", "category": "dogfriendly"}, {"place_id": "ChIJhfFqPGGLGGARracxk62s3cU", "name": "Buzz Cafe by ANELLA 赤坂店", "address": "港区赤坂２丁目１３−２０ 1F", "lat": 35.67279449999999, "lng": 139.7381591, "rating": 4.2, "user_ratings_total": 136, "business_status": "OPERATIONAL", "category": "dogfriendly"}, {"place_id": "ChIJGeZ0e76NGGAReCIwqaVkUSU", "name": "miki's cafe", "address": "新宿区新宿５丁目１−１９ 藤和新宿番衆町コープ 107号室", "lat": 35.6927967, "lng": 139.7126668, "rating": 4.9, "user_ratings_total": 1528, "business_status": "OPERATIONAL", "category": "dogfriendly"}, {"place_id": "ChIJCW-uzPSiy6wRJk4p7IZLUzM", "name": "BELLE＆EMMA 浅草", "address": "台東区浅草１丁目２１−１１ 1F ・2F", "lat": 35.7118394, "lng": 139.7954954, "rating": 4.6, "user_ratings_total": 190, "business_status": "OPERATIONAL", "category": "dogfriendly"}, {"place_id": "ChIJ5f0_sgWNGGARfCR89FB0C9w", "name": "Stroll", "address": "文京区目白台１丁目９−１３ エルドミール目白台 101", "lat": 35.7142556, "lng": 139.7188948, "rating": 4.5, "user_ratings_total": 105, "business_status": "OPERATIONAL", "category": "dogfriendly"}, {"place_id": "ChIJJ6K_vjCLGGARsfWb4llUoho", "name": "cafe milkygreek麻布十番shisha", "address": "港区麻布十番１丁目６−９ ARUGA22ビル 2F", "lat": 35.6567346, "lng": 139.7342336, "rating": 4.5, "user_ratings_total": 397, "business_status": "OPERATIONAL", "category": "dogfriendly"}, {"place_id": "ChIJx_KQnxOJGGARiUEa1LiuyB4", "name": "Come to Life Espresso", "address": "中央区日本橋浜町２丁目５５−２", "lat": 35.68682039999999, "lng": 139.7900237, "rating": 4.1, "user_ratings_total": 152, "business_status": "OPERATIONAL", "category": "dogfriendly"}, {"place_id": "ChIJ4SUu5yCNGGARGZavE-9DMOw", "name": "in the MIDDLE", "address": "新宿区新宿５丁目１−１９ 藤和新宿番衆町コープ 106", "lat": 35.6927826, "lng": 139.7127314, "rating": 4.8, "user_ratings_total": 121, "business_status": "OPERATIONAL", "category": "dogfriendly"}, {"place_id": "ChIJn_KN0v2NGGARyPIA_7RRRpU", "name": "neel神宮前", "address": "渋谷区神宮前２丁目１９−２ Ｂ－ＨＯＵＳＥ", "lat": 35.6736678, "lng": 139.7107169, "rating": 4.1, "user_ratings_total": 345, "business_status": "OPERATIONAL", "category": "dogfriendly"}, {"place_id": "ChIJ28T63CCNGGARLkC400qoiPM", "name": "Garosu", "address": "新宿区大久保２丁目７−１", "lat": 35.7011733, "lng": 139.7075276, "rating": 4.7, "user_ratings_total": 20, "business_status": "OPERATIONAL", "category": "dogfriendly"}, {"place_id": "ChIJM0WFXGGMGGARw_UnwLWimko", "name": "No.4", "address": "千代田区四番町５−９", "lat": 35.68816, "lng": 139.7360238, "rating": 4.2, "user_ratings_total": 2973, "business_status": "OPERATIONAL", "category": "dogfriendly"}, {"place_id": "ChIJpWNJfDiLGGARbxfidW11PTo", "name": "Mi tiempo ミ・ティエンポ", "address": "港区芝浦２丁目２−１８", "lat": 35.6460222, "lng": 139.7554849, "rating": 4.2, "user_ratings_total": 92, "business_status": "OPERATIONAL", "category": "dogfriendly"}, {"place_id": "ChIJ8dcF2bKOGGARr_n1u2DSU1E", "name": "SQUARE Cafe 東日本橋 本店", "address": "中央区東日本橋２丁目１６−７ 1F", "lat": 35.69452649999999, "lng": 139.7854432, "rating": 3.9, "user_ratings_total": 318, "business_status": "OPERATIONAL", "category": "dogfriendly"}, {"place_id": "ChIJlyht2y-JGGARFgbJm1bXaZo", "name": "Parlors", "address": "中央区日本橋横山町５−１３", "lat": 35.6926407, "lng": 139.7837279, "rating": 4, "user_ratings_total": 168, "business_status": "OPERATIONAL", "category": "dogfriendly"}, {"place_id": "ChIJOSEkF6OMGGARi6E8LCqX_Yo", "name": "Design Festa Cafe & Bar", "address": "渋谷区神宮前３丁目２０−１８", "lat": 35.6705963, "lng": 139.7082185, "rating": 4.6, "user_ratings_total": 104, "business_status": "OPERATIONAL", "category": "dogfriendly"}, {"place_id": "ChIJl40alVaNGGARMxz_kRzR7RA", "name": "SOLEW", "address": "新宿区新宿２丁目８−１ 新宿セブンビル 104号", "lat": 35.6889912, "lng": 139.7096863, "rating": 4, "user_ratings_total": 70, "business_status": "OPERATIONAL", "category": "dogfriendly"}, {"place_id": "ChIJjYETarCLGGARlG9qF7BgglE", "name": "MARBLE GALLERY CAFE", "address": "港区赤坂６丁目１９−４６ 多元文化会館 3F", "lat": 35.667767, "lng": 139.733366, "rating": 4.3, "user_ratings_total": 482, "business_status": "OPERATIONAL", "category": "dogfriendly"}, {"place_id": "ChIJxbhOqUaPGGARoUhTM81BRoI", "name": "LUCENT COFFEE", "address": "台東区寿１丁目１７−１２ レモンビル １F", "lat": 35.707653, "lng": 139.7907986, "rating": 4.5, "user_ratings_total": 512, "business_status": "OPERATIONAL", "category": "dogfriendly"}, {"place_id": "ChIJ5bR7uBaJGGAR45M35yYXy4U", "name": "inu to hito", "address": "中央区月島１丁目１６−１", "lat": 35.6645176, "lng": 139.7811137, "rating": 4.9, "user_ratings_total": 52, "business_status": "OPERATIONAL", "category": "dogfriendly"}, {"place_id": "ChIJ0_9xkqqLGGAR6Ho8G7YNN4Q", "name": "JAIME", "address": "港区赤坂６丁目１６−４", "lat": 35.668606, "lng": 139.7333639, "rating": 3.9, "user_ratings_total": 174, "business_status": "OPERATIONAL", "category": "dogfriendly"}, {"place_id": "ChIJJ_6cvAGNGGAR8SvSYZfpyes", "name": "LATTE ART MANIA TOKYO / ラテアートマニア東京店", "address": "港区北青山２丁目９−１３ 1F", "lat": 35.6711917, "lng": 139.7164796, "rating": 4.5, "user_ratings_total": 566, "business_status": "OPERATIONAL", "category": "dogfriendly"}, {"place_id": "ChIJ93RiCe-LGGARYQZPVSDSM6E", "name": "IPC Lounge", "address": "港区麻布十番２丁目１２−１０", "lat": 35.6542113, "lng": 139.734836, "rating": 4.2, "user_ratings_total": 45, "business_status": "OPERATIONAL", "category": "dogfriendly"}, {"place_id": "ChIJY6vjTACNGGARB6mEge_-cxM", "name": "BLUE SIX COFFEE", "address": "新宿区霞ヶ丘町５−７ 都立明治公園 D棟", "lat": 35.6754108, "lng": 139.714211, "rating": 4.2, "user_ratings_total": 256, "business_status": "OPERATIONAL", "category": "dogfriendly"}, {"place_id": "ChIJacUqmnOPGGARIRffAKbaw2c", "name": "BARK BAKE & ROAST", "address": "台東区蔵前３丁目１３−４", "lat": 35.7046727, "lng": 139.7920407, "rating": 3.9, "user_ratings_total": 168, "business_status": "OPERATIONAL", "category": "dogfriendly"}, {"place_id": "ChIJ3QiqsXqLGGAR-zG5Lp1ePWg", "name": "喫茶けん", "address": "港区西麻布２丁目１２−６", "lat": 35.6611057, "lng": 139.7223793, "rating": 4.3, "user_ratings_total": 97, "business_status": "OPERATIONAL", "category": "dogfriendly"}, {"place_id": "ChIJK_6Rv3KLGGAR2ZFo8LIQKjM", "name": "BONDI CAFE", "address": "港区南麻布５丁目１５−９ Barbizon70 １階", "lat": 35.6514604, "lng": 139.7228277, "rating": 3.9, "user_ratings_total": 775, "business_status": "OPERATIONAL", "category": "dogfriendly"}, {"place_id": "ChIJRT-f8EKNGGARaheeOIQlwSA", "name": "Coffee House eLu ［コーヒーハウスエル］", "address": "新宿区新宿１丁目１４−９", "lat": 35.6893239, "lng": 139.7103228, "rating": 4.4, "user_ratings_total": 59, "business_status": "OPERATIONAL", "category": "dogfriendly"}, {"place_id": "ChIJJcCF-NqNGGAR87VYl79c_cw", "name": "&t cafe アンドティーカフェ 表参道", "address": "渋谷区神宮前４丁目２２−１８ LEAF表参道 1F", "lat": 35.6688274, "lng": 139.7091435, "rating": 4.3, "user_ratings_total": 302, "business_status": "OPERATIONAL", "category": "dogfriendly"}, {"place_id": "ChIJD7veZjGPGGARk5tyfAtUHvs", "name": "Yu Me one coffee", "address": "台東区浅草１丁目１４−７", "lat": 35.7120473, "lng": 139.7937194, "rating": 4.3, "user_ratings_total": 59, "business_status": "OPERATIONAL", "category": "dogfriendly"}, {"place_id": "ChIJKSA9ZqSNGGARFU6ySH3XahU", "name": "夏目坂珈琲", "address": "新宿区戸山１丁目１１−１０ Rビル 1F", "lat": 35.702956, "lng": 139.7200935, "rating": 4.4, "user_ratings_total": 193, "business_status": "OPERATIONAL", "category": "dogfriendly"}, {"place_id": "ChIJicIyzhmLGGARLXHf6l8ZnNs", "name": "THE BLUE (ザ・ブルー)", "address": "千代田区有楽町１丁目２−２ 日比谷シャンテゴジラスクエア", "lat": 35.6735623, "lng": 139.760259, "rating": 4.2, "user_ratings_total": 353, "business_status": "OPERATIONAL", "category": "dogfriendly"}, {"place_id": "ChIJYxuabWWPGGARthIMPhwkf1A", "name": "ORTIGA オルティガ", "address": "台東区雷門２丁目１６−３", "lat": 35.7105711, "lng": 139.7948049, "rating": 4.5, "user_ratings_total": 196, "business_status": "OPERATIONAL", "category": "dogfriendly"}, {"place_id": "ChIJI2tm2Q-LGGARlV-ERvKgSVk", "name": "Kiwi Kitchen", "address": "港区白金６丁目１６−２２ 1F & 3F", "lat": 35.642299, "lng": 139.72206, "rating": 4.3, "user_ratings_total": 193, "business_status": "OPERATIONAL", "category": "dogfriendly"}, {"place_id": "ChIJwabac7CLGGARdniu4qTc1nc", "name": "Café Apéro 西麻布本店", "address": "港区西麻布４丁目２−１５ 水野ビル 1F", "lat": 35.6586719, "lng": 139.7235437, "rating": 4.4, "user_ratings_total": 108, "business_status": "OPERATIONAL", "category": "dogfriendly"}, {"place_id": "ChIJ77J3o4uNGGARbI9pndk_i2I", "name": "cafe dalcomhada", "address": "新宿区新宿５丁目１−１９ 藤和新宿番衆町コープ １０２号", "lat": 35.69265250000001, "lng": 139.7127041, "rating": 4.4, "user_ratings_total": 154, "business_status": "OPERATIONAL", "category": "dogfriendly"}, {"place_id": "ChIJBWZizA6LGGARtb5oeWOiKtg", "name": "代官山 JUMP COFFEE ROASTERY CAFE", "address": "渋谷区代官山町１３−４ 2階", "lat": 35.6498692, "lng": 139.7044759, "rating": 4.1, "user_ratings_total": 75, "business_status": "OPERATIONAL", "category": "dogfriendly"}, {"place_id": "ChIJBe0NtpuNGGARSlCSfNwSSl4", "name": "Eric Rose Cafe Tokyo", "address": "港区北青山３丁目４−３ １F", "lat": 35.667979, "lng": 139.7133682, "rating": 3.8, "user_ratings_total": 270, "business_status": "OPERATIONAL", "category": "dogfriendly"}, {"place_id": "ChIJw6lj4J-MGGARm2ympPdsDME", "name": "青山フラワーマーケット GREEN HOUSE", "address": "港区南青山５丁目４−４１ グラッセリア青山 １階", "lat": 35.6622458, "lng": 139.7134816, "rating": 4.5, "user_ratings_total": 674, "business_status": "OPERATIONAL", "category": "dogfriendly"}, {"place_id": "ChIJBYRTN46LGGARkCmRsvwgMAE", "name": "南青山カフェ", "address": "港区南青山４丁目２−１ Y&Y南青山 1F", "lat": 35.6664627, "lng": 139.7202392, "rating": 4.2, "user_ratings_total": 23, "business_status": "OPERATIONAL", "category": "dogfriendly"}, {"place_id": "ChIJcwLLyT2LGGAR5tNDUkM7tOQ", "name": "Marunouchi Happ. Stand & Gallery マルノウチ ハップ スタンドアンドギャラリー", "address": "千代田区丸の内２丁目５−１ 丸の内二丁目ビル 1F 仲通り側", "lat": 35.6800034, "lng": 139.7631815, "rating": 4, "user_ratings_total": 168, "business_status": "OPERATIONAL", "category": "dogfriendly"}, {"place_id": "ChIJhSgapkaLGGAR0eJAgwKnOoI", "name": "やまの ひつじ", "address": "渋谷区恵比寿西１丁目２６−２", "lat": 35.6477888, "lng": 139.7057894, "rating": 4.5, "user_ratings_total": 92, "business_status": "OPERATIONAL", "category": "dogfriendly"}, {"place_id": "ChIJV34h39iLGGARsfWpdwn8zvM", "name": "NEM", "address": "渋谷区恵比寿４丁目５−２１ 池田聖徳Isビル 1階", "lat": 35.644645, "lng": 139.7119006, "rating": 4.5, "user_ratings_total": 81, "business_status": "OPERATIONAL", "category": "dogfriendly"}, {"place_id": "ChIJ3QPlusaNGGAREtxpJQAslSs", "name": "PASSAGE COFFEE ICHIGAYA", "address": "新宿区市谷田町２丁目７−１５ 市ヶ谷クロスプレイス 1階", "lat": 35.6946221, "lng": 139.7378138, "rating": 4.5, "user_ratings_total": 177, "business_status": "OPERATIONAL", "category": "dogfriendly"}, {"place_id": "ChIJP3bEKAiPGGAReLTK-b4prpE", "name": "KURAMAE CANNELE", "address": "台東区蔵前２丁目１−２３", "lat": 35.7021357, "lng": 139.7903576, "rating": 4.2, "user_ratings_total": 364, "business_status": "OPERATIONAL", "category": "dogfriendly"}, {"place_id": "ChIJHaNmMmOJGGARuo_sldwgczg", "name": "TRUNK CAFE", "address": "中央区新川２丁目２２−６ ＳＪＩビル 1F", "lat": 35.6738871, "lng": 139.7824019, "rating": 4.3, "user_ratings_total": 145, "business_status": "OPERATIONAL", "category": "dogfriendly"}, {"place_id": "ChIJ5_qEnOqJGGAR1pHO8M1YVNc", "name": "Hama House （ハマハウス）", "address": "中央区日本橋浜町３丁目１０−６", "lat": 35.6843034, "lng": 139.7887348, "rating": 4, "user_ratings_total": 154, "business_status": "OPERATIONAL", "category": "dogfriendly"}, {"place_id": "ChIJHSGarXCLGGAR9fVHdTXrYbU", "name": "れいの", "address": "港区西麻布３丁目１−１９ 小山ビル 101", "lat": 35.6605259, "lng": 139.7267087, "rating": 4.3, "user_ratings_total": 170, "business_status": "OPERATIONAL", "category": "dogfriendly"}, {"place_id": "ChIJnfRZNDSNGGARV49_wv7p4NU", "name": "SYNdicate cafe", "address": "渋谷区神宮前１丁目１０−３４", "lat": 35.6700172, "lng": 139.7042487, "rating": 4.4, "user_ratings_total": 240, "business_status": "OPERATIONAL", "category": "dogfriendly"}, {"place_id": "ChIJc6a-b_6PGGARiXxoLij1pxQ", "name": "カフェ・レストラン Paradise Poke 蔵前駅前店", "address": "台東区蔵前２丁目４−８", "lat": 35.7029631, "lng": 139.7908847, "rating": 4.8, "user_ratings_total": 746, "business_status": "OPERATIONAL", "category": "dogfriendly"}, {"place_id": "ChIJ47Wzn6-LGGARlhInKK8rOKk", "name": "カフェレストラン ベルツ 三田", "address": "港区三田５丁目６−５ タグチハイツ２ 1F", "lat": 35.646894, "lng": 139.7398236, "rating": 4.5, "user_ratings_total": 159, "business_status": "OPERATIONAL", "category": "dogfriendly"}, {"place_id": "ChIJdQ36cQCJGGAReGpw_gW7fic", "name": "ブルーボトルコーヒー 豊洲パークカフェ", "address": "東京都江東区豊洲 2-3-6 豊洲公園内, ２丁目-３-６ 豊洲 江東区", "lat": 35.65363980000001, "lng": 139.7933134, "rating": 4.5, "user_ratings_total": 483, "business_status": "OPERATIONAL", "category": "dogfriendly"}, {"place_id": "ChIJg3Vim66LGGARe8IyKgpGGIg", "name": "Boku茶 Cafe", "address": "渋谷区代官山町１８−７ 代官山末廣ビル 1F", "lat": 35.64954, "lng": 139.7044411, "rating": 4.6, "user_ratings_total": 35, "business_status": "OPERATIONAL", "category": "dogfriendly"}, {"place_id": "ChIJAQALXA6LGGARRjvzf-8lJY0", "name": "anea cafe 白金店", "address": "港区白金５丁目１３ ６ANEA BLD1 2F", "lat": 35.6446828, "lng": 139.7239435, "rating": 4.1, "user_ratings_total": 289, "business_status": "OPERATIONAL", "category": "dogfriendly"}, {"place_id": "ChIJH3fPmNONGGARHsHJTJZFTkc", "name": "palba coffee croft", "address": "千代田区九段南３丁目５−４ T-PLACE九段 1F", "lat": 35.6922966, "lng": 139.7426638, "rating": 4.8, "user_ratings_total": 85, "business_status": "OPERATIONAL", "category": "dogfriendly"}, {"place_id": "ChIJs0G0dSGJGGAR5zTeXQb07ow", "name": "bouquet", "address": "中央区東日本橋３丁目９−１１ FETビル 1階", "lat": 35.6921297, "lng": 139.7840675, "rating": 4.3, "user_ratings_total": 111, "business_status": "OPERATIONAL", "category": "dogfriendly"}, {"place_id": "ChIJxZPubQCJGGARRYi_e-Cp2j4", "name": "ANEA CAFE 豊洲店", "address": "江東区豊洲２丁目１−８", "lat": 35.6568497, "lng": 139.7934308, "rating": 4.6, "user_ratings_total": 28, "business_status": "OPERATIONAL", "category": "dogfriendly"}, {"place_id": "ChIJVddreQCLGGARx5EzIvO7wdY", "name": "BALLOON Smile CREPE", "address": "港区南青山５丁目８−３ equboビル 1F", "lat": 35.6625472, "lng": 139.7122735, "rating": 4.7, "user_ratings_total": 22, "business_status": "OPERATIONAL", "category": "dogfriendly"}, {"place_id": "ChIJC-PvzmOPGGAR3uQEnXz5cgE", "name": "HATCOFFEE", "address": "台東区寿３丁目１５−６", "lat": 35.7072891, "lng": 139.7933029, "rating": 4.5, "user_ratings_total": 865, "business_status": "OPERATIONAL", "category": "dogfriendly"}, {"place_id": "ChIJx74LsPKLGGAR_11J8G1IF-w", "name": "VERVE COFFEE ROASTERS EBISU", "address": "渋谷区東３丁目９−１２", "lat": 35.65000080000001, "lng": 139.7118281, "rating": 4.3, "user_ratings_total": 78, "business_status": "OPERATIONAL", "category": "dogfriendly"}, {"place_id": "ChIJKV27XcWNGGARUMPjYkQlDlQ", "name": "think coffee", "address": "千代田区神田錦町２丁目９−１５ 1F-2F", "lat": 35.691347, "lng": 139.7629508, "rating": 4.6, "user_ratings_total": 385, "business_status": "OPERATIONAL", "category": "dogfriendly"}, {"place_id": "ChIJM951s5WNGGARF9qUgDir7Ws", "name": "Cafe & Bar Hasira", "address": "新宿区大久保１丁目３−２２ ヴァンヴェール新宿 1F Hasira", "lat": 35.6999133, "lng": 139.7076286, "rating": 4.3, "user_ratings_total": 70, "business_status": "OPERATIONAL", "category": "dogfriendly"}, {"place_id": "ChIJBcQhd8SLGGARjE4teUsB4s0", "name": "beyond the box -Tower side cafe-", "address": "港区芝大門２丁目９−１４ 加登ビル 1階", "lat": 35.6541508, "lng": 139.7527522, "rating": 4, "user_ratings_total": 124, "business_status": "OPERATIONAL", "category": "dogfriendly"}, {"place_id": "ChIJuS2Qp5aNGGARQLYCfvMbZW0", "name": "GOOD MORNING CAFE NOWADAYS", "address": "新宿区大京町３１−４ Brillia ist 千駄ヶ谷 1F", "lat": 35.6813259, "lng": 139.7141641, "rating": 4.1, "user_ratings_total": 1430, "business_status": "OPERATIONAL", "category": "dogfriendly"}, {"place_id": "ChIJu8f8AgCNGGARTTUd9Rg-eMk", "name": "Friend in Hand", "address": "港区北青山３丁目６−２０ Kfiビル ９階", "lat": 35.6644363, "lng": 139.7114949, "rating": 4, "user_ratings_total": 105, "business_status": "OPERATIONAL", "category": "dogfriendly"}, {"place_id": "ChIJ__-sGRuNGGARwn7fO6kII4o", "name": "GOOD MORNING CAFE 早稲田", "address": "新宿区西早稲田１丁目９−１２ 大隈スクエアビル １Ｆ", "lat": 35.7105554, "lng": 139.7201348, "rating": 3.8, "user_ratings_total": 574, "business_status": "OPERATIONAL", "category": "dogfriendly"}, {"place_id": "ChIJVVWx90SLGGARQXO5SgJybrg", "name": "GARDEN HOUSE CRAFTS DAIKANYAMA ガーデンハウス クラフツ ダイカンヤマ", "address": "渋谷区代官山町１３−１ ログロード代官山 5号棟", "lat": 35.6512959, "lng": 139.7057252, "rating": 4.3, "user_ratings_total": 582, "business_status": "OPERATIONAL", "category": "dogfriendly"}, {"place_id": "ChIJmf6JDL2JGGAR4c634pDHvdo", "name": "フォション ル・カフェ 髙島屋日本橋店", "address": "中央区日本橋２丁目５−１", "lat": 35.68082589999999, "lng": 139.7741006, "rating": 3.8, "user_ratings_total": 183, "business_status": "OPERATIONAL", "category": "dogfriendly"}, {"place_id": "ChIJASFWx6mLGGARhQG3oXxVA5U", "name": "UNI COFFEE ROASTERY オークウッドホテル麻布", "address": "港区東麻布３丁目１０−５ オークウッドホテル＆アパートメンツ麻布 1F", "lat": 35.655857, "lng": 139.7389317, "rating": 4, "user_ratings_total": 187, "business_status": "OPERATIONAL", "category": "dogfriendly"}, {"place_id": "ChIJyeKaVseNGGARvCdlFXkzZZk", "name": "Gather by UNPLAN 神楽坂", "address": "新宿区天神町２３−１ UNPLAN Kagurazaka", "lat": 35.7050505, "lng": 139.7314437, "rating": 4.5, "user_ratings_total": 148, "business_status": "OPERATIONAL", "category": "dogfriendly"}, {"place_id": "ChIJNe4aW6qLGGARLrrJYY9KlLY", "name": "uRn.chAi&TeA EBISU", "address": "渋谷区恵比寿１丁目２２−２３", "lat": 35.6464037, "lng": 139.7131646, "rating": 4.2, "user_ratings_total": 251, "business_status": "OPERATIONAL", "category": "dogfriendly"}, {"place_id": "ChIJ451SgaSMGGARk6dh5as5Y8M", "name": "café STUDIO", "address": "渋谷区神宮前４丁目３１−１０ 1F", "lat": 35.6690728, "lng": 139.706338, "rating": 3.8, "user_ratings_total": 460, "business_status": "OPERATIONAL", "category": "dogfriendly"}, {"place_id": "ChIJcyR6z6KMGGAR-2dCPyWoLXE", "name": "bio ojiyan caFe", "address": "渋谷区神宮前４丁目２６−２８", "lat": 35.6690881, "lng": 139.7078803, "rating": 3.9, "user_ratings_total": 337, "business_status": "OPERATIONAL", "category": "dogfriendly"}, {"place_id": "ChIJE14etZiJGGARPrcAD72favg", "name": "RHC カフェ豊洲店", "address": "江東区豊洲２丁目４−９", "lat": 35.6547151, "lng": 139.7918538, "rating": 4.1, "user_ratings_total": 274, "business_status": "OPERATIONAL", "category": "dogfriendly"}, {"place_id": "ChIJNx3MjLuMGGARz8MsG1zP49c", "name": "THE DECK COFFEE & PIE", "address": "渋谷区千駄ケ谷３丁目５３−１７ １階", "lat": 35.674359, "lng": 139.7060531, "rating": 4.1, "user_ratings_total": 666, "business_status": "OPERATIONAL", "category": "dogfriendly"}, {"place_id": "ChIJHQ6OfwCLGGAR9OEEb2DWpp8", "name": "KAIKOU COFFEE", "address": "港区高輪１丁目２０−２", "lat": 35.6392964, "lng": 139.7342845, "rating": 4.4, "user_ratings_total": 69, "business_status": "OPERATIONAL", "category": "dogfriendly"}, {"place_id": "ChIJJU_CIQCNGGARNNwR7EAm5uQ", "name": "latte All day diner", "address": "新宿区神楽坂３丁目１ クレール神楽坂 2 3F", "lat": 35.70200579999999, "lng": 139.7411974, "rating": 3.5, "user_ratings_total": 51, "business_status": "OPERATIONAL", "category": "dogfriendly"}, {"place_id": "ChIJfzyiVyqLGGAR-cWX9jWQuXs", "name": "BESIDE SEASIDE", "address": "港区海岸２丁目７−１０３ Hi-NODE 1F", "lat": 35.6516584, "lng": 139.7607522, "rating": 3.8, "user_ratings_total": 821, "business_status": "OPERATIONAL", "category": "dogfriendly"}, {"place_id": "ChIJgyv4DeiMGGARrJzcN7D5r6w", "name": "ミルリトンカフェ", "address": "新宿区富久町１６−１２", "lat": 35.6914704, "lng": 139.7125902, "rating": 4.2, "user_ratings_total": 166, "business_status": "OPERATIONAL", "category": "dogfriendly"}, {"place_id": "ChIJCV1XevaNGGAR80l9VxtgCqc", "name": "BROOKS GREENLIT CAFE", "address": "港区南青山１丁目７−１２", "lat": 35.6706169, "lng": 139.7248786, "rating": 4.2, "user_ratings_total": 52, "business_status": "OPERATIONAL", "category": "dogfriendly"}, {"place_id": "ChIJBzGS9R-LGGARWZNT6qUntKA", "name": "CHIHYE COFFEE", "address": "港区麻布十番１丁目７−１０", "lat": 35.6561499, "lng": 139.7347145, "rating": 4.2, "user_ratings_total": 171, "business_status": "OPERATIONAL", "category": "dogfriendly"}, {"place_id": "ChIJx_hD53ONGGARjgmx642ioG0", "name": "CAFE SECRET WINDOW", "address": "新宿区大久保２丁目２５−３５ MKM大久保 1F", "lat": 35.7015112, "lng": 139.7043882, "rating": 4.7, "user_ratings_total": 567, "business_status": "OPERATIONAL", "category": "dogfriendly"}, {"place_id": "ChIJDRqmJxiPGGARtJP3xqvc7DU", "name": "CAFFE GENTILE", "address": "台東区台東３丁目１４−６ 大黒ビル", "lat": 35.704671, "lng": 139.7766075, "rating": 4.9, "user_ratings_total": 15, "business_status": "OPERATIONAL", "category": "dogfriendly"}, {"place_id": "ChIJzSyID_uNGGARTZ9wVXuGlkE", "name": "Telling Cafe & Gallery", "address": "港区北青山１丁目４−５ Vort青山一丁目Dual's 1F 2F", "lat": 35.6722099, "lng": 139.7217628, "rating": 4.4, "user_ratings_total": 80, "business_status": "OPERATIONAL", "category": "dogfriendly"}, {"place_id": "ChIJb4fjEROLGGARRfbF-BNpcAI", "name": "BLINK Cafe Pet friendly (ブリンクカフェ ペットフレンドリー)", "address": "港区元麻布３丁目１−６", "lat": 35.6582628, "lng": 139.7283567, "rating": 4.1, "user_ratings_total": 7, "business_status": "OPERATIONAL", "category": "dogfriendly"}, {"place_id": "ChIJLwbE4KeNGGARJ34cg0GgwFA", "name": "Koru", "address": "新宿区内藤町１−９ 塚田ビル 1階", "lat": 35.6839437, "lng": 139.7157909, "rating": 4.8, "user_ratings_total": 105, "business_status": "OPERATIONAL", "category": "dogfriendly"}, {"place_id": "ChIJWei1Q1ONGGARaQo8NlPs1Zc", "name": "Capybara & Cat - capyneko - HARAJUKU TOKYO カピねこ原宿", "address": "渋谷区神宮前１丁目６−１０ Bsquare竹下通り 2F", "lat": 35.6709257, "lng": 139.7055908, "rating": 4.5, "user_ratings_total": 150, "business_status": "OPERATIONAL", "category": "dogfriendly"}, {"place_id": "ChIJsxHWKQCPGGAR9GBpWov0sAI", "name": "pignic cafe Asakusa", "address": "台東区浅草１丁目１７−４ VORT浅草雷門 ３F", "lat": 35.7115271, "lng": 139.7948321, "rating": 5, "user_ratings_total": 3935, "business_status": "OPERATIONAL", "category": "dogfriendly"}, {"place_id": "ChIJsyLxAEiNGGARkWDeQtbPec4", "name": "Vege ++ Coffee ベジトコーヒー", "address": "新宿区西早稲田１丁目１−８", "lat": 35.7072805, "lng": 139.7193415, "rating": 4.6, "user_ratings_total": 91, "business_status": "OPERATIONAL", "category": "dogfriendly"}, {"place_id": "ChIJj5cqeuaPGGARu8IWbCdpG88", "name": "ドルチェフェスタ浅草-DOLCE FESTA ASAKUSA-", "address": "台東区浅草１丁目１６−１１ 孔雀堂ビル", "lat": 35.7117484, "lng": 139.794675, "rating": 4.5, "user_ratings_total": 108, "business_status": "OPERATIONAL", "category": "dogfriendly"}, {"place_id": "ChIJ43SaI0vzGGARgPqmj-jA7Po", "name": "cafeNINE代々木", "address": "渋谷区代々木５丁目３８−６", "lat": 35.6711655, "lng": 139.6901258, "rating": 4.3, "user_ratings_total": 160, "business_status": "OPERATIONAL", "category": "dogfriendly"}, {"place_id": "ChIJh3NWMgDzGGARMiDRbl80PNI", "name": "Luke's Tearoom", "address": "目黒区駒場４丁目６−３ アーク駒場 1F", "lat": 35.66405719999999, "lng": 139.677699, "rating": 4.8, "user_ratings_total": 57, "business_status": "OPERATIONAL", "category": "dogfriendly"}, {"place_id": "ChIJ_2vBXgCLGGARF7sEIxbALXg", "name": "mum coffee", "address": "渋谷区桜丘町１０−６ 1F", "lat": 35.6543478, "lng": 139.7023458, "rating": 4.7, "user_ratings_total": 83, "business_status": "OPERATIONAL", "category": "dogfriendly"}, {"place_id": "ChIJkzgPBRCLGGARtKYhuyCENHM", "name": "BtoC coffee ビートゥーシーコーヒー", "address": "目黒区下目黒４丁目１１−２２", "lat": 35.631297, "lng": 139.7045598, "rating": 4.5, "user_ratings_total": 15, "business_status": "OPERATIONAL", "category": "dogfriendly"}, {"place_id": "ChIJjcJtLkjzGGAR3X2f_XrgBkI", "name": "ビーグル", "address": "渋谷区西原３丁目２３−６", "lat": 35.6704865, "lng": 139.683115, "rating": 4.5, "user_ratings_total": 63, "business_status": "OPERATIONAL", "category": "dogfriendly"}, {"place_id": "ChIJ_6QYHl31GGARGQpwFDBR0L8", "name": "The Crema. Club", "address": "目黒区上目黒５丁目３２−５ 101", "lat": 35.6411623, "lng": 139.6857247, "rating": 4.8, "user_ratings_total": 111, "business_status": "OPERATIONAL", "category": "dogfriendly"}, {"place_id": "ChIJIyF0gnSLGGARzYwubhOo12c", "name": "alors", "address": "目黒区上目黒２丁目４０−２６ クレアトール中目黒 1階", "lat": 35.6408027, "lng": 139.6954075, "rating": 4.2, "user_ratings_total": 85, "business_status": "OPERATIONAL", "category": "dogfriendly"}, {"place_id": "ChIJI--Sfn7zGGARXnHT99w5aGU", "name": "DIMLIGHT ESPRESSO Coffee Roasters", "address": "渋谷区代々木１丁目４２−６ メゾン共和 １０１", "lat": 35.6824211, "lng": 139.6996982, "rating": 4.4, "user_ratings_total": 398, "business_status": "OPERATIONAL", "category": "dogfriendly"}, {"place_id": "ChIJ88Rqw0rzGGARBUtoXOqhKqo", "name": "TIME, TIME, TIME.", "address": "世田谷区代沢４丁目４−３ 443", "lat": 35.6509728, "lng": 139.6673928, "rating": 4.8, "user_ratings_total": 72, "business_status": "OPERATIONAL", "category": "dogfriendly"}, {"place_id": "ChIJb-hw-rOLGGARvHw4tc1l4Sk", "name": "BONDI CAFE Nakameguro", "address": "目黒区中目黒１丁目９−１９ Mテラス １階", "lat": 35.6436024, "lng": 139.7015787, "rating": 4, "user_ratings_total": 69, "business_status": "OPERATIONAL", "category": "dogfriendly"}, {"place_id": "ChIJQ8D-NwCLGGARjgcF89OeO1U", "name": "THE ORDY BAKERY", "address": "品川区西五反田４丁目９−１６ Hotel Vintage 目黒不動 前1F", "lat": 35.6247275, "lng": 139.7101551, "rating": 3.6, "user_ratings_total": 69, "business_status": "OPERATIONAL", "category": "dogfriendly"}, {"place_id": "ChIJzXI8cA7zGGAR5YTQJ-CR42M", "name": "ANEA CAFE 松見坂", "address": "目黒区駒場１丁目１６−７ Emare 駒場 １F", "lat": 35.6555707, "lng": 139.6886846, "rating": 4.4, "user_ratings_total": 241, "business_status": "OPERATIONAL", "category": "dogfriendly"}, {"place_id": "ChIJ0_R9mVT1GGARewVKBBF1VJ0", "name": "YELLOW KOMAZAWA KOEN", "address": "世田谷区駒沢５丁目１９−１０", "lat": 35.6250196, "lng": 139.6555831, "rating": 4.4, "user_ratings_total": 153, "business_status": "OPERATIONAL", "category": "dogfriendly"}, {"place_id": "ChIJaQtPOwGLGGAR6B3Xl5fNn2k", "name": "Coffee Base MEGURO", "address": "目黒区目黒２丁目８−８", "lat": 35.6335919, "lng": 139.7101113, "rating": 4, "user_ratings_total": 229, "business_status": "OPERATIONAL", "category": "dogfriendly"}, {"place_id": "ChIJjxLfCsaNGGAR_i2eeS9L7ug", "name": "Flip Flip Coffee Supply", "address": "渋谷区代々木１丁目２１−５", "lat": 35.6805735, "lng": 139.702929, "rating": 4.6, "user_ratings_total": 323, "business_status": "OPERATIONAL", "category": "dogfriendly"}, {"place_id": "ChIJRcJG0R2NGGARipOvMDtk4FM", "name": "ホワイトリー カフェ", "address": "渋谷区神南１丁目６−１４ ジョルディビル 1F", "lat": 35.6645894, "lng": 139.6997538, "rating": 4.5, "user_ratings_total": 681, "business_status": "OPERATIONAL", "category": "dogfriendly"}, {"place_id": "ChIJ9eRwblKLGGAR-auzKHAZTxc", "name": "STREAMER COFFEE COMPANY NAKAMEGURO", "address": "目黒区青葉台２丁目１６−６ REIELEC青葉台 1F", "lat": 35.6487985, "lng": 139.6946208, "rating": 4.1, "user_ratings_total": 441, "business_status": "OPERATIONAL", "category": "dogfriendly"}, {"place_id": "ChIJ746uPwD1GGAR3OhD6VUX81M", "name": "WhiteMonkey coffee and bar", "address": "世田谷区池尻２丁目３０−１１ 1F", "lat": 35.6495587, "lng": 139.6837574, "rating": 4.8, "user_ratings_total": 218, "business_status": "OPERATIONAL", "category": "dogfriendly"}, {"place_id": "ChIJmyrq_rLzGGARelZl7aHerhg", "name": "ミッドナイトブルー MIDNIGHT BREW", "address": "中野区弥生町２丁目３１−１８ 蒼苑ビル 1F", "lat": 35.6910212, "lng": 139.6742092, "rating": 4.3, "user_ratings_total": 86, "business_status": "OPERATIONAL", "category": "dogfriendly"}, {"place_id": "ChIJS1XLhwqLGGARXoe3jCbG_90", "name": "GOOD LUCK CAFE&BAR 中目黒", "address": "目黒区上目黒１丁目２２−１２", "lat": 35.6445433, "lng": 139.6995777, "rating": 4.8, "user_ratings_total": 31, "business_status": "OPERATIONAL", "category": "dogfriendly"}, {"place_id": "ChIJj2L_tXCLGGARO8ZAd_lJnKA", "name": "Lily's Cafe", "address": "品川区小山台２丁目８−２ Lily's Cafe", "lat": 35.6233816, "lng": 139.7028384, "rating": 4.3, "user_ratings_total": 85, "business_status": "OPERATIONAL", "category": "dogfriendly"}, {"place_id": "ChIJ1T06wjT1GGARDe0iNw2Du6M", "name": "犬みみカフェ", "address": "目黒区五本木２丁目３１−１０", "lat": 35.6355594, "lng": 139.6859733, "rating": 4.9, "user_ratings_total": 9, "business_status": "OPERATIONAL", "category": "dogfriendly"}, {"place_id": "ChIJPZSXRe-LGGARk33GfABab1Y", "name": "ブルーボトルコーヒー 代官山カフェ", "address": "渋谷区代官山町２０−２３ フォレストゲート代官山 Main棟 1階⁠", "lat": 35.6487574, "lng": 139.7023996, "rating": 4.4, "user_ratings_total": 271, "business_status": "OPERATIONAL", "category": "dogfriendly"}, {"place_id": "ChIJUdpqN2b1GGARy3SjWi3ofX0", "name": "Corner 池尻大橋", "address": "目黒区大橋２丁目２２−２ エメロード大坂 1F", "lat": 35.6521305, "lng": 139.6868754, "rating": 4.2, "user_ratings_total": 121, "business_status": "OPERATIONAL", "category": "dogfriendly"}, {"place_id": "ChIJlwFVGmPzGGARmpes_r3hBjE", "name": "VERVE COFFEE ROASTERS YOYOGI PARK", "address": "渋谷区代々木５丁目６６−５ アルベリ代々木公園 1F", "lat": 35.6712704, "lng": 139.6905192, "rating": 4.3, "user_ratings_total": 255, "business_status": "OPERATIONAL", "category": "dogfriendly"}, {"place_id": "ChIJ_zVBBACLGGARe5dJd73-XeQ", "name": "greekee", "address": "目黒区東山１丁目１−５ 東山ＡＴビル 101", "lat": 35.648272, "lng": 139.692889, "rating": 4.5, "user_ratings_total": 132, "business_status": "OPERATIONAL", "category": "dogfriendly"}, {"place_id": "ChIJVwprcYnzGGAR2z6yaLIYAQw", "name": "uba COFFEE", "address": "渋谷区本町２丁目４−４ ART HOTELS SHIBUYA 1F", "lat": 35.6835295, "lng": 139.6840984, "rating": 4.5, "user_ratings_total": 137, "business_status": "OPERATIONAL", "category": "dogfriendly"}, {"place_id": "ChIJJ_V5dTSLGGAR6bi5TWbAjOU", "name": "BLUE TERRACE 恵比寿店 シーシャ&ドッグカフェバー", "address": "渋谷区恵比寿西１丁目２５−１ １階", "lat": 35.6477635, "lng": 139.7054327, "rating": 4.9, "user_ratings_total": 241, "business_status": "OPERATIONAL", "category": "dogfriendly"}, {"place_id": "ChIJQ3_Q_0vzGGARcOmD6KLVMts", "name": "Little Nap COFFEE ROASTERS", "address": "渋谷区富ケ谷２丁目４３−１５", "lat": 35.6677478, "lng": 139.686096, "rating": 4.1, "user_ratings_total": 384, "business_status": "OPERATIONAL", "category": "dogfriendly"}, {"place_id": "ChIJr_9bjkWLGGARx9FHLzhMBFc", "name": "ザワールドカフェ", "address": "目黒区青葉台２丁目２０−７", "lat": 35.6482092, "lng": 139.6940996, "rating": 4.7, "user_ratings_total": 120, "business_status": "OPERATIONAL", "category": "dogfriendly"}, {"place_id": "ChIJq7_e1sj1GGARFjtr-KnOqfQ", "name": "TONE", "address": "世田谷区駒沢４丁目１４−１３ 1F", "lat": 35.6284294, "lng": 139.6561413, "rating": 4.3, "user_ratings_total": 45, "business_status": "OPERATIONAL", "category": "dogfriendly"}, {"place_id": "ChIJ3-7W4bnzGGARJszz8XbEOtI", "name": "CAFEDICT", "address": "世田谷区若林３丁目１７−７", "lat": 35.643084, "lng": 139.6552041, "rating": 4.2, "user_ratings_total": 63, "business_status": "OPERATIONAL", "category": "dogfriendly"}, {"place_id": "ChIJwXZepXrzGGARpQKv7LbPxXk", "name": "PORT tomigaya", "address": "渋谷区富ケ谷２丁目２０−１ Luiud.T.Bldg 1F", "lat": 35.6625672, "lng": 139.6873287, "rating": 4.6, "user_ratings_total": 74, "business_status": "OPERATIONAL", "category": "dogfriendly"}, {"place_id": "ChIJMacE23fzGGARd7K04jN0TGk", "name": "BOLT", "address": "渋谷区上原１丁目１８−７ 第五大貴ビル", "lat": 35.6685312, "lng": 139.6826739, "rating": 3.9, "user_ratings_total": 101, "business_status": "OPERATIONAL", "category": "dogfriendly"}, {"place_id": "ChIJ4ZmfX4v0GGARw4CEV2-9mAs", "name": "バワリーキッチン", "address": "世田谷区駒沢５丁目１８−７ ロイヤルパーク駒沢 501", "lat": 35.62418, "lng": 139.6552872, "rating": 3.8, "user_ratings_total": 564, "business_status": "OPERATIONAL", "category": "dogfriendly"}, {"place_id": "ChIJ06PVFgD1GGARTTGozJK7ViI", "name": "BONDI COFFEE SANDWICHES Komazawa", "address": "世田谷区駒沢４丁目１３−１０ DKY6ビル １階", "lat": 35.6281333, "lng": 139.65609, "rating": 3, "user_ratings_total": 47, "business_status": "OPERATIONAL", "category": "dogfriendly"}, {"place_id": "ChIJw3pwFcr1GGARtFcfNOrXf1o", "name": "GOOD CHEESE GOOD BAKE", "address": "目黒区碑文谷５丁目１１−１３", "lat": 35.6249382, "lng": 139.6829436, "rating": 3.9, "user_ratings_total": 99, "business_status": "OPERATIONAL", "category": "dogfriendly"}, {"place_id": "ChIJRfqGKrf1GGARxM0DhSX4YmI", "name": "Village Cafe 深沢 by Promenade", "address": "世田谷区深沢２丁目１−１０", "lat": 35.6218548, "lng": 139.6659597, "rating": 3, "user_ratings_total": 43, "business_status": "OPERATIONAL", "category": "dogfriendly"}, {"place_id": "ChIJ_RSVL8_zGGAR6OyJJbyC-TE", "name": "THE NUTS EXCHANGE – Vegan Cafe Tokyo", "address": "渋谷区富ケ谷１丁目５１−１", "lat": 35.6689143, "lng": 139.689239, "rating": 4.5, "user_ratings_total": 193, "business_status": "OPERATIONAL", "category": "dogfriendly"}, {"place_id": "ChIJ04xtMyH1GGARYbqAsDL0ngg", "name": "RECEPTION tokyo stay (1F Cafe&Bar/2F Accommodation)", "address": "世田谷区太子堂４丁目４−１７", "lat": 35.6436491, "lng": 139.6677907, "rating": 4.5, "user_ratings_total": 29, "business_status": "OPERATIONAL", "category": "dogfriendly"}, {"place_id": "ChIJn-_1D4D1GGARWSf5aJjJHDo", "name": "森山珈琲 三宿焙煎所", "address": "世田谷区下馬２丁目４４−１１", "lat": 35.6444054, "lng": 139.6793243, "rating": 4, "user_ratings_total": 120, "business_status": "OPERATIONAL", "category": "dogfriendly"}, {"place_id": "ChIJ1XEXGDX1GGARaTvxYdoXOUY", "name": "りとるうぇすと", "address": "目黒区八雲５丁目１０−１９", "lat": 35.6247339, "lng": 139.6661001, "rating": 4.8, "user_ratings_total": 31, "business_status": "OPERATIONAL", "category": "dogfriendly"}, {"place_id": "ChIJgxvHX5LzGGARg_WZVIwn-po", "name": "はぐくむ湖畔", "address": "世田谷区松原５丁目２−２ prendre YS 1F", "lat": 35.6625043, "lng": 139.6555584, "rating": 4.6, "user_ratings_total": 104, "business_status": "OPERATIONAL", "category": "dogfriendly"}, {"place_id": "ChIJl3lm_ab0GGAR5I97l3HVR1Y", "name": "L.A.GARAGE 池尻大橋", "address": "世田谷区池尻３丁目２９−４ アルティザ池尻 1F", "lat": 35.6481192, "lng": 139.6778842, "rating": 4.1, "user_ratings_total": 320, "business_status": "OPERATIONAL", "category": "dogfriendly"}, {"place_id": "ChIJEajd4_-LGGARLRyBOkqFYfc", "name": "Lowkey カフェ 池尻大橋・中目黒", "address": "目黒区東山２丁目３−５ ビラ・アペックスタワー 1F", "lat": 35.6487163, "lng": 139.6919927, "rating": 4.2, "user_ratings_total": 73, "business_status": "OPERATIONAL", "category": "dogfriendly"}, {"place_id": "ChIJ_6ha7NzyGGAR-GN4BpQ9XQ0", "name": "Anea cafe", "address": "中野区本町５丁目３−８", "lat": 35.6934973, "lng": 139.6743718, "rating": 4.3, "user_ratings_total": 286, "business_status": "OPERATIONAL", "category": "dogfriendly"}, {"place_id": "ChIJCwwGh3WLGGARExt3KjjewDQ", "name": "les joues de BeBe", "address": "目黒区目黒１丁目３−１５ リードシー目黒ウェストビル 1F", "lat": 35.6348641, "lng": 139.7137578, "rating": 4.2, "user_ratings_total": 536, "business_status": "OPERATIONAL", "category": "dogfriendly"}, {"place_id": "ChIJayjsEo2LGGARc1IEcN1r5Yg", "name": "CAFÉ FAÇON BASE Tokyo.", "address": "目黒区青葉台３丁目１９−５", "lat": 35.6501664, "lng": 139.6916541, "rating": 4.5, "user_ratings_total": 91, "business_status": "OPERATIONAL", "category": "dogfriendly"}, {"place_id": "ChIJv0gsH07zGGARl7LAQhDCgaY", "name": "BONDI COFFEE SANDWICHES", "address": "渋谷区富ケ谷２丁目２２−８ AKIRAビル １階", "lat": 35.662851, "lng": 139.6849449, "rating": 4, "user_ratings_total": 486, "business_status": "OPERATIONAL", "category": "dogfriendly"}, {"place_id": "ChIJSePqrKzzGGAR1brEGY6QgNE", "name": "小春日和TOKYO", "address": "渋谷区富ケ谷１丁目８−３ 志田ビル 1F", "lat": 35.66901920000001, "lng": 139.6905252, "rating": 4.1, "user_ratings_total": 142, "business_status": "OPERATIONAL", "category": "dogfriendly"}, {"place_id": "ChIJ1wyjLzaLGGARK_irG5UqGt0", "name": "nakameguro SLOW TABLE", "address": "目黒区上目黒２丁目２０−５ ハイツ伊勢脇 1F", "lat": 35.6398708, "lng": 139.6982238, "rating": 4, "user_ratings_total": 215, "business_status": "OPERATIONAL", "category": "dogfriendly"}, {"place_id": "ChIJeX2WQI_0GGAR0iB-2vSz5mM", "name": "slowfoodcafe SMILE", "address": "世田谷区駒沢２丁目１８−４ 福々マンション 1F", "lat": 35.6315643, "lng": 139.6565401, "rating": 4.2, "user_ratings_total": 80, "business_status": "OPERATIONAL", "category": "dogfriendly"}, {"place_id": "ChIJgSQlNU-LGGARtx1LIOOhq1E", "name": "テイスト アンド センス（Taste AND Sense）", "address": "目黒区上目黒１丁目７−１３ １F B-TOWN", "lat": 35.6457891, "lng": 139.7001482, "rating": 3.9, "user_ratings_total": 138, "business_status": "OPERATIONAL", "category": "dogfriendly"}, {"place_id": "ChIJ0zbr5v7zGGAR-PzrYw6YsK4", "name": "むさしの森Ｄｉｎｅｒ 新宿中央公園店", "address": "新宿区西新宿２丁目１１−５ 新宿中央公園内 SHUKNOVA 2階", "lat": 35.6910689, "lng": 139.6901922, "rating": 4.3, "user_ratings_total": 1274, "business_status": "OPERATIONAL", "category": "dogfriendly"}, {"place_id": "ChIJlRcqOqOLGGAR81w8zy_7KyM", "name": "Times CAFÉ", "address": "品川区西五反田２丁目２０−４ パーク24グループ本社ビル ２階", "lat": 35.625891, "lng": 139.721682, "rating": 4.1, "user_ratings_total": 277, "business_status": "OPERATIONAL", "category": "dogfriendly"}, {"place_id": "ChIJFVrkMinzGGARtqKZBIXP3TA", "name": "コーヒーショップ ～Arcobaleno Caffe&Bar Tokyo～", "address": "新宿区西新宿４丁目１４−７ 1F", "lat": 35.6899236, "lng": 139.6878816, "rating": 4.7, "user_ratings_total": 68, "business_status": "OPERATIONAL", "category": "dogfriendly"}, {"place_id": "ChIJGXlmRjLzGGARj_zgswF0ybk", "name": "BROOKLYN ROASTING COMPANY SHIMOKITAZAWA", "address": "世田谷区北沢２丁目６−２ ミカン下北B街区 B101", "lat": 35.6611433, "lng": 139.6689932, "rating": 3.9, "user_ratings_total": 513, "business_status": "OPERATIONAL", "category": "dogfriendly"}, {"place_id": "ChIJYQslQgDzGGARna9ydjpjBBs", "name": "arvo coffee", "address": "世田谷区代沢２丁目４２−１０", "lat": 35.6599267, "lng": 139.6729144, "rating": 5, "user_ratings_total": 46, "business_status": "OPERATIONAL", "category": "dogfriendly"}, {"place_id": "ChIJ9SSHtW-LGGARIwHIXRuJ8Dc", "name": "Cafe&Bar Beans Garage Coffee（ビーンズ ガレージ コーヒー）", "address": "渋谷区鶯谷町１７−９", "lat": 35.6538916, "lng": 139.6999823, "rating": 4.1, "user_ratings_total": 329, "business_status": "OPERATIONAL", "category": "dogfriendly"}, {"place_id": "ChIJH_wVLoKNGGARqPZKqemgdG0", "name": "ZEBRA Coffee&Croissant 渋谷公園通り店", "address": "渋谷区宇田川町１−１２ パークコート渋谷 ザ・タワ 2F", "lat": 35.6642304, "lng": 139.6977585, "rating": 3.9, "user_ratings_total": 160, "business_status": "OPERATIONAL", "category": "dogfriendly"}, {"place_id": "ChIJJyYXasuMGGARzibRcurrkgI", "name": "anea cafe SANGUBASHI", "address": "渋谷区代々木４丁目１０−４ レインボーパレス参宮橋 １F", "lat": 35.6784422, "lng": 139.6924348, "rating": 4, "user_ratings_total": 348, "business_status": "OPERATIONAL", "category": "dogfriendly"}, {"place_id": "ChIJO08dXVyNGGARZeiHWwFpJqA", "name": "AIR DRIP COFFEE SHIBUYA", "address": "渋谷区松濤１丁目２７−１", "lat": 35.6596557, "lng": 139.6936706, "rating": 4.7, "user_ratings_total": 89, "business_status": "OPERATIONAL", "category": "dogfriendly"}, {"place_id": "ChIJob9XVR2NGGARMH-_uhd9apc", "name": "SHARK COFFEE", "address": "渋谷区宇田川町２−１ 渋谷ホームズ 1F", "lat": 35.663663, "lng": 139.6987557, "rating": 4.5, "user_ratings_total": 1731, "business_status": "OPERATIONAL", "category": "dogfriendly"}, {"place_id": "ChIJ5zWiaVKLGGARxgA5DCP03_A", "name": "YOLO 渋谷宮益坂", "address": "渋谷区渋谷１丁目１４−１５ 森ビル ７階", "lat": 35.6601855, "lng": 139.7025775, "rating": 4.9, "user_ratings_total": 724, "business_status": "OPERATIONAL", "category": "dogfriendly"}, {"place_id": "ChIJK68Pq5P0GGAR-jwLkwZWE2A", "name": "BROOKLYN RIBBON FRIES KOMAZAWA(ブルックリンリボンフライ駒沢店)", "address": "目黒区東が丘２丁目１４−１１", "lat": 35.6288359, "lng": 139.6632418, "rating": 3.9, "user_ratings_total": 304, "business_status": "OPERATIONAL", "category": "dogfriendly"}, {"place_id": "ChIJZ7cGxUWLGGARuNnwHp4Ze-Y", "name": "it COFFEE", "address": "渋谷区恵比寿西１丁目３４−２８ 代官山ファーストビル １階", "lat": 35.647654, "lng": 139.7031261, "rating": 3.9, "user_ratings_total": 243, "business_status": "OPERATIONAL", "category": "dogfriendly"}, {"place_id": "ChIJP43Xfe30GGARdSLBLwvBiG0", "name": "KOMAZAWA PARK CAFE", "address": "世田谷区深沢２丁目１９−２０ クレードル駒沢公園", "lat": 35.6232768, "lng": 139.6607487, "rating": 3.6, "user_ratings_total": 382, "business_status": "OPERATIONAL", "category": "dogfriendly"}, {"place_id": "ChIJTVy6z-aLGGARhftYIwQj9C4", "name": "YOLO cafe&bar 渋谷", "address": "渋谷区道玄坂１丁目３−１１ 渋谷一番ビル ５階", "lat": 35.6582722, "lng": 139.6996396, "rating": 4.8, "user_ratings_total": 1022, "business_status": "OPERATIONAL", "category": "dogfriendly"}, {"place_id": "ChIJg3oJiTiLGGARLw5LAm4Bktw", "name": "Seacret Base Cafe&Shisha Bar/シークレットベース カフェ&シーシャバー中目黒", "address": "目黒区東山１丁目９−１４ ラポール目黒 202", "lat": 35.6473635, "lng": 139.6937272, "rating": 4.8, "user_ratings_total": 201, "business_status": "OPERATIONAL", "category": "dogfriendly"}, {"place_id": "ChIJUyaS0ErzGGAR6_mFuqndQ9o", "name": "Little Nap COFFEE STAND", "address": "渋谷区代々木５丁目６５−４", "lat": 35.67209460000001, "lng": 139.6905858, "rating": 4.5, "user_ratings_total": 1096, "business_status": "OPERATIONAL", "category": "dogfriendly"}, {"place_id": "ChIJ1_cNI4aNGGARJcgjUSwT0mY", "name": "pignic cafe yoyogipark", "address": "渋谷区富ケ谷１丁目１７−３ 3A TERRACE BLD 2F", "lat": 35.6664311, "lng": 139.6923938, "rating": 4.9, "user_ratings_total": 2883, "business_status": "OPERATIONAL", "category": "dogfriendly"}, {"place_id": "ChIJf8bCo_T0GGARFgC7whHhBas", "name": "MUNYA", "address": "世田谷区駒沢５丁目１５−４", "lat": 35.6220343, "lng": 139.6548998, "rating": 4.2, "user_ratings_total": 35, "business_status": "OPERATIONAL", "category": "dogfriendly"}, {"place_id": "ChIJN-P099zyGGARd0eGcr8A8mQ", "name": "TRICHROMATIC COFFEE", "address": "中野区弥生町２丁目２３−７ クレイン中野新橋 102", "lat": 35.6926006, "lng": 139.6739366, "rating": 4.6, "user_ratings_total": 277, "business_status": "OPERATIONAL", "category": "dogfriendly"}, {"place_id": "ChIJCcVSUQnzGGARX_rxd-xyJ-s", "name": "ドッグベリー下北沢", "address": "世田谷区北沢２丁目２９−１６ 高木ビル", "lat": 35.6631124, "lng": 139.6669696, "rating": 4.1, "user_ratings_total": 189, "business_status": "OPERATIONAL", "category": "dogfriendly"}, {"place_id": "ChIJNx9RF7iLGGAR7pgFvwtb1Ug", "name": "TONER", "address": "品川区西五反田３丁目８−３ 町原ビル 1F", "lat": 35.626636, "lng": 139.7177894, "rating": 4.1, "user_ratings_total": 261, "business_status": "OPERATIONAL", "category": "dogfriendly"}, {"place_id": "ChIJ3ZSygXP1GGARNw68f1eyZKM", "name": "ALL GREEN island / alley", "address": "世田谷区池尻２丁目２８−８ 1F", "lat": 35.6491553, "lng": 139.683558, "rating": 4.7, "user_ratings_total": 50, "business_status": "OPERATIONAL", "category": "dogfriendly"}, {"place_id": "ChIJF3G_G5D0GGARwHen_P84lKw", "name": "ライスカフェ", "address": "世田谷区上馬４丁目５−５", "lat": 35.633795, "lng": 139.6608681, "rating": 4.2, "user_ratings_total": 156, "business_status": "OPERATIONAL", "category": "dogfriendly"}, {"place_id": "ChIJf9ZFRILzGGARpYpZ0q8SqVM", "name": "PostCoffee® Offline Store", "address": "世田谷区北沢２丁目２８−２ 深澤ビル 1F", "lat": 35.66312740000001, "lng": 139.6659198, "rating": 4.7, "user_ratings_total": 113, "business_status": "OPERATIONAL", "category": "dogfriendly"}, {"place_id": "ChIJcQkij2nzGGAR1z0_6te2w7M", "name": "Canna Cafe（カンナカフェ）", "address": "世田谷区大原１丁目２５−４ エタニティ大原 1F", "lat": 35.6681693, "lng": 139.6615287, "rating": 4.5, "user_ratings_total": 165, "business_status": "OPERATIONAL", "category": "dogfriendly"}, {"place_id": "ChIJ0wmeP9r0GGARadz1S6yEptU", "name": "ザパーク", "address": "目黒区柿の木坂１丁目６−２７", "lat": 35.6201899, "lng": 139.6794957, "rating": 4.5, "user_ratings_total": 13, "business_status": "OPERATIONAL", "category": "dogfriendly"}, {"place_id": "ChIJBVYcsoDzGGARy-HgFskboyI", "name": "シガニーベイクアンドコーヒー", "address": "渋谷区上原１丁目１７−７ 2F", "lat": 35.668896, "lng": 139.68256, "rating": 4.2, "user_ratings_total": 169, "business_status": "OPERATIONAL", "category": "dogfriendly"}, {"place_id": "ChIJ9QeA-iONGGARXzSqHL376vI", "name": "POOL cafe", "address": "渋谷区神宮前４丁目２８−６ ペラージュ原宿", "lat": 35.6692356, "lng": 139.7073126, "rating": 4, "user_ratings_total": 44, "business_status": "OPERATIONAL", "category": "dogfriendly"}, {"place_id": "ChIJzw-XHjeLGGAR3sTsRTvmVXA", "name": "ドックラン エム 恵比寿", "address": "渋谷区恵比寿４丁目１０−１７ GrandM 4F", "lat": 35.6454472, "lng": 139.7136293, "rating": 3.5, "user_ratings_total": 17, "business_status": "OPERATIONAL", "category": "dogfriendly"}, {"place_id": "ChIJnfgSYcrzGGARLhnWHTO36kA", "name": "LEGAL COFFEE", "address": "渋谷区西原１丁目１４", "lat": 35.674781, "lng": 139.679512, "rating": 4.3, "user_ratings_total": 84, "business_status": "OPERATIONAL", "category": "dogfriendly"}, {"place_id": "ChIJczm3Zx2NGGARO78IxKoO5s0", "name": "Off coffee stand Minami Aoyama", "address": "港区南青山１丁目１０−３ 1階", "lat": 35.6707746, "lng": 139.7264244, "rating": 4.5, "user_ratings_total": 120, "business_status": "OPERATIONAL", "category": "dogfriendly"}, {"place_id": "ChIJAQD8z7KMGGAR6rUl3gbCh_I", "name": "ROSTRO", "address": "渋谷区富ケ谷１丁目１４−２０ サウスピア 1F", "lat": 35.66704319999999, "lng": 139.6917939, "rating": 4.5, "user_ratings_total": 685, "business_status": "OPERATIONAL", "category": "dogfriendly"}, {"place_id": "ChIJldR8c_WLGGARW7Ci83bntMM", "name": "DAY COFFEE", "address": "品川区西五反田４丁目４−２３", "lat": 35.6277921, "lng": 139.712003, "rating": 3.9, "user_ratings_total": 152, "business_status": "OPERATIONAL", "category": "dogfriendly"}, {"place_id": "ChIJh6tbN6qMGGARMFZFV5qLZCo", "name": "CAFE9", "address": "渋谷区円山町１−５", "lat": 35.6592987, "lng": 139.6952379, "rating": 3, "user_ratings_total": 7, "business_status": "OPERATIONAL", "category": "dogfriendly"}, {"place_id": "ChIJpZQcxVWLGGARUqBJbgjvKME", "name": "FabCafe Tokyo", "address": "渋谷区道玄坂１丁目２２−７ 道玄坂ピア 1F", "lat": 35.6560546, "lng": 139.6954829, "rating": 4.1, "user_ratings_total": 637, "business_status": "OPERATIONAL", "category": "dogfriendly"}, {"place_id": "ChIJ3075MfKLGGARHRdy5fW72dE", "name": "GEM daikanyama", "address": "渋谷区猿楽町１２−２９", "lat": 35.6508126, "lng": 139.7013129, "rating": 5, "user_ratings_total": 3, "business_status": "OPERATIONAL", "category": "dogfriendly"}, {"place_id": "ChIJ-Yi1XHLzGGARPSFIlN7C1Ho", "name": "青色喫茶Oz", "address": "中野区中野３丁目３４−１９", "lat": 35.70459140000001, "lng": 139.6647497, "rating": 4.6, "user_ratings_total": 30, "business_status": "OPERATIONAL", "category": "dogfriendly"}, {"place_id": "ChIJpQhMD6LyGGAR0uqJStynUw0", "name": "蜜蜂", "address": "中野区新井５丁目２７−２", "lat": 35.7159856, "lng": 139.6710157, "rating": 4.2, "user_ratings_total": 162, "business_status": "OPERATIONAL", "category": "dogfriendly"}, {"place_id": "ChIJU3ijuk-NGGAReJeqiv_EinI", "name": "ダブルトールコーヒー 新宿御苑", "address": "新宿区新宿１丁目２３−１１ 御苑メインビル 101", "lat": 35.6895298, "lng": 139.7143743, "rating": 4.7, "user_ratings_total": 351, "business_status": "OPERATIONAL", "category": "dogfriendly"}, {"place_id": "ChIJw47GgEeNGGAR8F6RMcBz46c", "name": "coffee swamp", "address": "新宿区西新宿７丁目２１−１２ れんげ荘 105号", "lat": 35.6949274, "lng": 139.6950661, "rating": 4.9, "user_ratings_total": 724, "business_status": "OPERATIONAL", "category": "dogfriendly"}, {"place_id": "ChIJ37HHn4ONGGARy6t2c989zjM", "name": "Animal Cafe 爬にまるカフェ", "address": "新宿区大久保１丁目１６−１９", "lat": 35.7007645, "lng": 139.7030301, "rating": 3.7, "user_ratings_total": 186, "business_status": "OPERATIONAL", "category": "dogfriendly"}, {"place_id": "ChIJL5Tmv2mNGGAR3yxuK36Fwl0", "name": "喫茶ココナ", "address": "新宿区大久保１丁目７−２２ 2F", "lat": 35.7007419, "lng": 139.7055223, "rating": 4.8, "user_ratings_total": 33, "business_status": "OPERATIONAL", "category": "dogfriendly"}, {"place_id": "ChIJ0y3rAhHzGGAR4s2AV_6NtC4", "name": "Sedai Coffee Hatagaya", "address": "渋谷区幡ケ谷１丁目２９−２ THESTEPS B1F", "lat": 35.6748858, "lng": 139.6747067, "rating": 4.6, "user_ratings_total": 16, "business_status": "OPERATIONAL", "category": "dogfriendly"}, {"place_id": "ChIJXTeBKqWMGGAR1jUFWJLvzeA", "name": "原宿ダッチ パスタラボ", "address": "渋谷区神宮前１丁目１０−３７ 2F", "lat": 35.6699821, "lng": 139.7038861, "rating": 4.3, "user_ratings_total": 458, "business_status": "OPERATIONAL", "category": "dogfriendly"}, {"place_id": "ChIJLaSwHZaNGGARlLhT_sdRI5A", "name": "＋me", "address": "文京区目白台３丁目２５−１４ レセーナ新栄 1F", "lat": 35.7189082, "lng": 139.7242485, "rating": 4.4, "user_ratings_total": 12, "business_status": "OPERATIONAL", "category": "dogfriendly"}, {"place_id": "ChIJaQjU9UaNGGARNa39BaYfFmo", "name": "HARU COFFEE cafe&bar", "address": "新宿区大久保２丁目３２−１", "lat": 35.701394, "lng": 139.7027667, "rating": 3.5, "user_ratings_total": 125, "business_status": "OPERATIONAL", "category": "dogfriendly"}, {"place_id": "ChIJASLT-3eLGGARKKChKZrJCJg", "name": "CAFE & DINING POKKE", "address": "港区麻布台３丁目１−６ bule building 2F", "lat": 35.66080850000001, "lng": 139.7385759, "rating": 4.4, "user_ratings_total": 121, "business_status": "OPERATIONAL", "category": "dogfriendly"}, {"place_id": "ChIJ9djaMKPzGGARu0f-pQBMN6Q", "name": "LOU", "address": "中野区中野５丁目５３−４", "lat": 35.7091706, "lng": 139.666534, "rating": 4.2, "user_ratings_total": 403, "business_status": "OPERATIONAL", "category": "dogfriendly"}, {"place_id": "ChIJkRC1iQCNGGAR7HTxYXzyHAo", "name": "yurucafe", "address": "豊島区雑司が谷３丁目１０−６", "lat": 35.7224695, "lng": 139.7124452, "rating": 4.3, "user_ratings_total": 118, "business_status": "OPERATIONAL", "category": "dogfriendly"}, {"place_id": "ChIJwc5YXzuNGGARL-TvuvWEXDQ", "name": "FUFU サモエドカフェ池袋東口店", "address": "西池サンケイビル 303号室, １丁目-２２-５ 東池袋 豊島区", "lat": 35.7295487, "lng": 139.7154364, "rating": 4.8, "user_ratings_total": 2206, "business_status": "OPERATIONAL", "category": "dogfriendly"}, {"place_id": "ChIJ377YcmvzGGARvG9pEvz1fNs", "name": "Waffle cafe ORANGE", "address": "世田谷区北沢２丁目２６−２１ エルフェア シティ下北沢 101", "lat": 35.662617, "lng": 139.6668432, "rating": 4.1, "user_ratings_total": 238, "business_status": "OPERATIONAL", "category": "dogfriendly"}, {"place_id": "ChIJG8OmcQDzGGARNL4p5Vyua8M", "name": "MATOI COFFEE（マトイコーヒー）", "address": "世田谷区北沢２丁目３４−１０ ２階", "lat": 35.6632663, "lng": 139.6685223, "rating": 4.6, "user_ratings_total": 14, "business_status": "OPERATIONAL", "category": "dogfriendly"}, {"place_id": "ChIJ-Vj_nVCNGGARKjPuTnhyFFE", "name": "ザ・ジョーンズ カフェバー", "address": "新宿区西新宿３丁目４−７", "lat": 35.6854852, "lng": 139.6921609, "rating": 3.9, "user_ratings_total": 311, "business_status": "OPERATIONAL", "category": "dogfriendly"}, {"place_id": "ChIJF9wHGpSNGGARKrhFr2o4-bc", "name": "キミノント coffee and your__", "address": "新宿区矢来町２−２", "lat": 35.7020386, "lng": 139.7322893, "rating": 4.5, "user_ratings_total": 42, "business_status": "OPERATIONAL", "category": "dogfriendly"}, {"place_id": "ChIJrbu8BvyNGGAReoXw5suaQn4", "name": "EAT GOOD PLACE", "address": "豊島区東池袋４丁目４２−１ IKE•SUNPARK イケ・サンパーク", "lat": 35.727311, "lng": 139.721754, "rating": 4, "user_ratings_total": 467, "business_status": "OPERATIONAL", "category": "dogfriendly"}, {"place_id": "ChIJn6r_KjHzGGARxlDEumMYVOY", "name": "HOFF", "address": "渋谷区初台２丁目１１−１１", "lat": 35.6759153, "lng": 139.6836574, "rating": 4.3, "user_ratings_total": 395, "business_status": "OPERATIONAL", "category": "dogfriendly"}, {"place_id": "ChIJO3JeyiTzGGARZogbgQfLcY0", "name": "ラグ ハタガヤ", "address": "渋谷区幡ケ谷２丁目１９−１", "lat": 35.6767885, "lng": 139.6745988, "rating": 4.1, "user_ratings_total": 408, "business_status": "OPERATIONAL", "category": "dogfriendly"}, {"place_id": "ChIJhZlGWD2NGGARWNtdHPy2Agk", "name": "Scoop Coffee", "address": "新宿区大久保１丁目１０−１５ 2階", "lat": 35.7009587, "lng": 139.7045, "rating": 4, "user_ratings_total": 201, "business_status": "OPERATIONAL", "category": "dogfriendly"}, {"place_id": "ChIJYYIpXsSNGGARuVou7uTsk-A", "name": "APTIMO", "address": "渋谷区神宮前２丁目２２−２ FOLD BLD 1F", "lat": 35.6750192, "lng": 139.7106854, "rating": 3.9, "user_ratings_total": 120, "business_status": "OPERATIONAL", "category": "dogfriendly"}, {"place_id": "ChIJq6o2f9uMGGARQXQHUcKZqD0", "name": "ANALOG SHINJUKU （アナログシンジュク）", "address": "新宿区新宿３丁目１２−１２ 吉田ビル 4F", "lat": 35.691692, "lng": 139.7061603, "rating": 3.7, "user_ratings_total": 325, "business_status": "OPERATIONAL", "category": "dogfriendly"}, {"place_id": "ChIJOUIqb_vzGGARBdnn5-KiPjA", "name": "Vaji spice", "address": "渋谷区代々木５丁目６３−１０", "lat": 35.6725322, "lng": 139.6907671, "rating": 4.3, "user_ratings_total": 223, "business_status": "OPERATIONAL", "category": "dogfriendly"}, {"place_id": "ChIJK6Vq3laMGGAR2v1epDF5ZWw", "name": "神楽坂 ペルゴー(Perregaux)", "address": "新宿区神楽坂６丁目３４", "lat": 35.7039614, "lng": 139.7359015, "rating": 4, "user_ratings_total": 67, "business_status": "OPERATIONAL", "category": "dogfriendly"}, {"place_id": "ChIJP7miMzrzGGAR6hTKywfADnY", "name": "パドラーズコーヒー", "address": "渋谷区西原２丁目２６−５", "lat": 35.6747117, "lng": 139.6787239, "rating": 4.2, "user_ratings_total": 1002, "business_status": "OPERATIONAL", "category": "dogfriendly"}, {"place_id": "ChIJWdyNBVjzGGARb0qPpO353F0", "name": "なかなかの", "address": "中野区東中野２丁目６−１４", "lat": 35.701553, "lng": 139.6823762, "rating": 4.2, "user_ratings_total": 72, "business_status": "OPERATIONAL", "category": "dogfriendly"}, {"place_id": "ChIJl80_KACNGGAR1gBwrr6pxro", "name": "AKHA AMA COFFEE ROASTERS TOKYO/アカアマコーヒー", "address": "新宿区早稲田鶴巻町110−１７", "lat": 35.7080799, "lng": 139.7241874, "rating": 4.5, "user_ratings_total": 148, "business_status": "OPERATIONAL", "category": "dogfriendly"}, {"place_id": "ChIJv3agYViLGGARddTKliyIV-U", "name": "ちくちくCAFE", "address": "2f, １丁目-１３-５ 渋谷 渋谷区", "lat": 35.6599544, "lng": 139.7037551, "rating": 4.6, "user_ratings_total": 628, "business_status": "OPERATIONAL", "category": "dogfriendly"}, {"place_id": "ChIJ88wNf--NGGARK0ZDHm1ifCU", "name": "バゲージ カフェマーケット", "address": "渋谷区神宮前３丁目１４−１７ 1F", "lat": 35.6694234, "lng": 139.7099634, "rating": 4.7, "user_ratings_total": 472, "business_status": "OPERATIONAL", "category": "dogfriendly"}, {"place_id": "ChIJNZaU_DqNGGARWNjkHLObJiM", "name": "Re:s cafebar&sweets リスカフェ", "address": "新宿区大久保３丁目９−５ 都営西大久保アパート 1F", "lat": 35.7085869, "lng": 139.7039452, "rating": 4.1, "user_ratings_total": 276, "business_status": "OPERATIONAL", "category": "dogfriendly"}, {"place_id": "ChIJx0C7nsTyGGARCYgZv_xfhIQ", "name": "SmB CAFE", "address": "中野区本町３丁目３１−２ 和甲第一マンション", "lat": 35.6969254, "lng": 139.6761233, "rating": 4.4, "user_ratings_total": 161, "business_status": "OPERATIONAL", "category": "dogfriendly"}, {"place_id": "ChIJw37Yz0rzGGARiRBxSrTTW1c", "name": "Cyōdo", "address": "渋谷区本町６丁目３７−１０", "lat": 35.6809252, "lng": 139.676661, "rating": 3.5, "user_ratings_total": 87, "business_status": "OPERATIONAL", "category": "dogfriendly"}, {"place_id": "ChIJs0ZFVqSMGGARFO5AP3pXcak", "name": "エコファームカフェ632 HARAJUKU", "address": "渋谷区神宮前６丁目３２−１０ ピアザアネックス １F", "lat": 35.6679576, "lng": 139.7043191, "rating": 4, "user_ratings_total": 551, "business_status": "OPERATIONAL", "category": "dogfriendly"}, {"place_id": "ChIJZwEtOuSLGGARb1l-EiX3Krk", "name": "アパルトマン301", "address": "新宿区新宿３丁目１０−１０ 要会館 3F", "lat": 35.6912121, "lng": 139.7065146, "rating": 3.7, "user_ratings_total": 338, "business_status": "OPERATIONAL", "category": "dogfriendly"}, {"place_id": "ChIJydQo26CMGGARx5JyQxgiVRA", "name": "CHOP COFFEE OMOTESANDO", "address": "渋谷区神宮前５丁目４４−１２", "lat": 35.6641658, "lng": 139.7072494, "rating": 4.4, "user_ratings_total": 154, "business_status": "OPERATIONAL", "category": "dogfriendly"}, {"place_id": "ChIJ___bDamMGGARJcQJlXT0jcA", "name": "attic room shibuya （アティックルーム シブヤ）", "address": "渋谷区宇田川町３１−３ 第3田中ビル 7F", "lat": 35.6613786, "lng": 139.6978647, "rating": 3.9, "user_ratings_total": 221, "business_status": "OPERATIONAL", "category": "dogfriendly"}, {"place_id": "ChIJRyuWjIGLGGARLeHAqoMkrCc", "name": "Gazzara", "address": "港区赤坂６丁目１６−４", "lat": 35.668606, "lng": 139.7333639, "rating": 3.9, "user_ratings_total": 28, "business_status": "OPERATIONAL", "category": "dogfriendly"}, {"place_id": "ChIJT3vbvrrzGGARkI8_OaqUd8A", "name": "CAFÉ OASIS 中野坂上店", "address": "中野区本町２丁目４８−１３ Dormy＋Café中野坂上 1F", "lat": 35.6970915, "lng": 139.6811052, "rating": 4, "user_ratings_total": 140, "business_status": "OPERATIONAL", "category": "dogfriendly"}, {"place_id": "ChIJL6BOzNTyGGARk-NimpwTN_0", "name": "KASHIWAGI CAFE 西新宿", "address": "新宿区西新宿８丁目１９−１１", "lat": 35.6955598, "lng": 139.6909101, "rating": 4.1, "user_ratings_total": 175, "business_status": "OPERATIONAL", "category": "dogfriendly"}, {"place_id": "ChIJuXhLE-OPGGARvcYskxieBVs", "name": "寄り道", "address": "台東区浅草２丁目２９−２１", "lat": 35.7153235, "lng": 139.7955816, "rating": 5, "user_ratings_total": 13, "business_status": "OPERATIONAL", "category": "dogfriendly"}, {"place_id": "ChIJmwIKzzqNGGARk4vz8VbDUog", "name": "はちくまカフェ", "address": "豊島区東池袋２丁目５０−１３ マガザン東池袋 1階", "lat": 35.7325643, "lng": 139.7197987, "rating": 4, "user_ratings_total": 39, "business_status": "OPERATIONAL", "category": "dogfriendly"}, {"place_id": "ChIJLaB5feSNGGARn8dCYy5i4uE", "name": "カフェ ユエ", "address": "台東区谷中６丁目３−１２ 松尾ハウス", "lat": 35.7232774, "lng": 139.7690762, "rating": 4.3, "user_ratings_total": 85, "business_status": "OPERATIONAL", "category": "dogfriendly"}, {"place_id": "ChIJ8QYueCOPGGAR49b4G_8OnZI", "name": "HATCOFFEE LATTEART STAND", "address": "台東区雷門２丁目１９ 浅草駅前ビル 6TCRE 2F", "lat": 35.7103164, "lng": 139.796974, "rating": 4.5, "user_ratings_total": 208, "business_status": "OPERATIONAL", "category": "dogfriendly"}, {"place_id": "ChIJWz7FblmNGGAR36DZkTyso3Q", "name": "Whip&Jiminy's Cafe", "address": "文京区根津２丁目１２−５ 丹羽ビル 1階", "lat": 35.7176986, "lng": 139.7655707, "rating": 4.9, "user_ratings_total": 104, "business_status": "OPERATIONAL", "category": "dogfriendly"}, {"place_id": "ChIJv_vfJ8uNGGARYm8PuX_-60k", "name": "Lecoin ル・コワン", "address": "台東区谷中５丁目４−３", "lat": 35.7237729, "lng": 139.7674907, "rating": 4.3, "user_ratings_total": 165, "business_status": "OPERATIONAL", "category": "dogfriendly"}, {"place_id": "ChIJ6WrpLUeNGGAREzzUEjAU5Ow", "name": "Cafe ENAK", "address": "台東区池之端２丁目７−１４ ロックビル", "lat": 35.7163003, "lng": 139.7664959, "rating": 4.9, "user_ratings_total": 13, "business_status": "OPERATIONAL", "category": "dogfriendly"}, {"place_id": "ChIJl0AsrZKJGGARs_17mhYRdgk", "name": "プルミエ", "address": "中央区日本橋人形町２丁目８−１０", "lat": 35.6860071, "lng": 139.7835767, "rating": 4.1, "user_ratings_total": 22, "business_status": "OPERATIONAL", "category": "dogfriendly"}, {"place_id": "ChIJV5Oqu-aNGGARO1MRa4tib_E", "name": "ノンノバドール・ワンPeace", "address": "荒川区東尾久５丁目２８−１", "lat": 35.7452207, "lng": 139.7669437, "rating": 4, "user_ratings_total": 70, "business_status": "OPERATIONAL", "category": "dogfriendly"}, {"place_id": "ChIJiSq1gaOPGGARYmgcbVlsDgg", "name": "アトミヨソワカ 蔵前", "address": "台東区蔵前４丁目１７−４", "lat": 35.7038155, "lng": 139.788404, "rating": 4.6, "user_ratings_total": 43, "business_status": "OPERATIONAL", "category": "dogfriendly"}, {"place_id": "ChIJfyOtWDmNGGARzpkDqFAISQM", "name": "Pond Owl Star Coffee Shop", "address": "豊島区東池袋２丁目４３−６", "lat": 35.7327643, "lng": 139.7212376, "rating": 4.5, "user_ratings_total": 14, "business_status": "OPERATIONAL", "category": "dogfriendly"}, {"place_id": "ChIJP4Bz0qGPGGARvecJNH-2f3M", "name": "ARC", "address": "台東区鳥越２丁目３−４ 篠田梅村共同ビル 1F", "lat": 35.7020521, "lng": 139.7862164, "rating": 3.8, "user_ratings_total": 256, "business_status": "OPERATIONAL", "category": "dogfriendly"}, {"place_id": "ChIJoax6MJCNGGARKZ9zoLud9Zo", "name": "レトロフィッシュカフェ", "address": "豊島区駒込３丁目３０−２", "lat": 35.7407168, "lng": 139.7441485, "rating": 4.4, "user_ratings_total": 73, "business_status": "OPERATIONAL", "category": "dogfriendly"}, {"place_id": "ChIJfyQyK6aNGGARlLRcjZdGEtQ", "name": "cafe&bar totoru", "address": "文京区大塚３丁目５−２ 窪町CKビル 1階", "lat": 35.7194051, "lng": 139.734556, "rating": 4.3, "user_ratings_total": 297, "business_status": "OPERATIONAL", "category": "dogfriendly"}, {"place_id": "ChIJbYmQNwCTGGARw1tqSC11yBU", "name": "flower&café Blooming", "address": "豊島区上池袋４丁目２７−５", "lat": 35.74093800000001, "lng": 139.7190443, "rating": 4.7, "user_ratings_total": 24, "business_status": "OPERATIONAL", "category": "dogfriendly"}, {"place_id": "ChIJF3a-UK-JGGARMfhSmGZE27c", "name": "Tiny Paradise Coffee", "address": "江東区富岡１丁目２６−１２ 101", "lat": 35.6702033, "lng": 139.7994087, "rating": 4.6, "user_ratings_total": 245, "business_status": "OPERATIONAL", "category": "dogfriendly"}, {"place_id": "ChIJ9znA6JaNGGAR_SNfvKGMxdE", "name": "桜キッチンカフェ", "address": "豊島区駒込３丁目１−１６", "lat": 35.7360259, "lng": 139.7455031, "rating": 4.2, "user_ratings_total": 216, "business_status": "OPERATIONAL", "category": "dogfriendly"}, {"place_id": "ChIJMTcoRsGOGGARvrSTuPYk49A", "name": "LaVASARA 別邸", "address": "台東区浅草２丁目２−１３", "lat": 35.7133057, "lng": 139.7971861, "rating": 4.7, "user_ratings_total": 14226, "business_status": "OPERATIONAL", "category": "dogfriendly"}, {"place_id": "ChIJiysJEZ2OGGARqGfMb3NkgYs", "name": "EVERYONEs CAFE 上野恩賜公園", "address": "台東区上野公園８−４", "lat": 35.7156365, "lng": 139.7747698, "rating": 3.9, "user_ratings_total": 1526, "business_status": "OPERATIONAL", "category": "dogfriendly"}, {"place_id": "ChIJYVi-s_yNGGARcRu2xl2_s2M", "name": "Cafe 1 Part", "address": "新宿区水道町２−３ 星川ビル 1階", "lat": 35.707737, "lng": 139.7355775, "rating": 4.5, "user_ratings_total": 223, "business_status": "OPERATIONAL", "category": "dogfriendly"}, {"place_id": "ChIJI2u0dgCNGGARIXNDMM0z-vU", "name": "MR.HIPPO COFFEE 市ヶ谷店", "address": "千代田区九段北４丁目２−１５ 1E", "lat": 35.6915686, "lng": 139.736822, "rating": 4, "user_ratings_total": 58, "business_status": "OPERATIONAL", "category": "dogfriendly"}, {"place_id": "ChIJn7ScJwCJGGARSTcVYsg4UL4", "name": "Cafe Polaris", "address": "江東区森下１丁目５−１２", "lat": 35.686145, "lng": 139.7982092, "rating": 4.4, "user_ratings_total": 34, "business_status": "OPERATIONAL", "category": "dogfriendly"}, {"place_id": "ChIJ21TyLcmNGGAR0PvMqpxvCJQ", "name": "cafe & bar 花重谷中茶屋", "address": "台東区谷中７丁目５−２７", "lat": 35.7235715, "lng": 139.7701399, "rating": 4.4, "user_ratings_total": 179, "business_status": "OPERATIONAL", "category": "dogfriendly"}, {"place_id": "ChIJw8Z_hLeNGGARCFkS5pHmB9E", "name": "cafe Hanamori 千駄木店", "address": "文京区千駄木３丁目４０−１７ カサベルデ 1F", "lat": 35.726034, "lng": 139.7643288, "rating": 4.3, "user_ratings_total": 62, "business_status": "OPERATIONAL", "category": "dogfriendly"}, {"place_id": "ChIJc3ZrKO6LGGARmxuCqhVPKqI", "name": "DEAN & DELUCA カフェ 東京ミッドタウン日比谷", "address": "千代田区有楽町１丁目１−４ 東京ミッドタウン日比谷 1F", "lat": 35.674082, "lng": 139.759507, "rating": 3.8, "user_ratings_total": 240, "business_status": "OPERATIONAL", "category": "dogfriendly"}, {"place_id": "ChIJg7xFv2WNGGARa7cWIHeXJxA", "name": "Heavenly Grey Coffee ヘブンリーグレーコーヒー", "address": "新宿区四谷４丁目３２−８ 102号", "lat": 35.6895047, "lng": 139.7147134, "rating": 4.8, "user_ratings_total": 51, "business_status": "OPERATIONAL", "category": "dogfriendly"}, {"place_id": "ChIJHfpFh7aPGGAR3xtdQv2U8YE", "name": "ASAGE CAFE-カワドコCAFE & BAR- 浅草蔵前", "address": "台東区駒形２丁目１−５ 1 階、2階", "lat": 35.7052553, "lng": 139.7946272, "rating": 4.3, "user_ratings_total": 472, "business_status": "OPERATIONAL", "category": "dogfriendly"}, {"place_id": "ChIJVVXZRrKOGGARfqQ08vSThz4", "name": "友安製作所Cafe 浅草橋", "address": "台東区浅草橋１丁目７−２ 岩崎ビル 1F", "lat": 35.6966577, "lng": 139.7847432, "rating": 4.1, "user_ratings_total": 500, "business_status": "OPERATIONAL", "category": "dogfriendly"}, {"place_id": "ChIJ6RWANb-OGGARPCfzVQCzFO0", "name": "Le Petit Pont", "address": "台東区雷門１丁目７−７ 里見ビルⅡ 2F", "lat": 35.7103139, "lng": 139.7920254, "rating": 0, "user_ratings_total": 0, "business_status": "OPERATIONAL", "category": "dogfriendly"}, {"place_id": "ChIJHyaPkqiNGGARJhh5q8XleSM", "name": "カフェ ハル テラス", "address": "文京区大塚１丁目５−２３", "lat": 35.7184608, "lng": 139.7352254, "rating": 4.1, "user_ratings_total": 62, "business_status": "OPERATIONAL", "category": "dogfriendly"}, {"place_id": "ChIJqQUwhD6JGGARWpz3TN1CDkU", "name": "ミチス", "address": "江東区清澄３丁目１０−１１", "lat": 35.6830245, "lng": 139.7980799, "rating": 3.8, "user_ratings_total": 33, "business_status": "OPERATIONAL", "category": "dogfriendly"}, {"place_id": "ChIJmU2uBh6MGGARVuapNfmK-Rw", "name": "うさぎカフェ もふれる", "address": "千代田区外神田５丁目２−３ アソルティ末広町 B1", "lat": 35.7042085, "lng": 139.7721033, "rating": 4.3, "user_ratings_total": 411, "business_status": "OPERATIONAL", "category": "dogfriendly"}, {"place_id": "ChIJm1SIHPaPGGARUrCiyKa9otQ", "name": "ボンズハウス", "address": "墨田区石原１丁目３９−１", "lat": 35.701461, "lng": 139.7981041, "rating": 4.5, "user_ratings_total": 635, "business_status": "OPERATIONAL", "category": "dogfriendly"}, {"place_id": "ChIJW37-maSJGGARAVfOsHNGMxg", "name": "分身ロボットカフェ DAWN ver.β", "address": "中央区日本橋本町３丁目８−３ １階", "lat": 35.6893014, "lng": 139.7760482, "rating": 4.6, "user_ratings_total": 2449, "business_status": "OPERATIONAL", "category": "dogfriendly"}, {"place_id": "ChIJSa5kM6yPGGARve6AR32XjqM", "name": "cafe capyba ASAKUSA （capybara cafe）", "address": "台東区千束１丁目１−４", "lat": 35.71760039999999, "lng": 139.7919598, "rating": 4.9, "user_ratings_total": 172, "business_status": "OPERATIONAL", "category": "dogfriendly"}, {"place_id": "ChIJBcN8nEiJGGARme8yMwSksEs", "name": "August Moon Cafe", "address": "中央区日本橋浜町２丁目５４−５ The LOCK", "lat": 35.68656620000001, "lng": 139.7899032, "rating": 4.3, "user_ratings_total": 146, "business_status": "OPERATIONAL", "category": "dogfriendly"}, {"place_id": "ChIJs5pg8KGNGGARdgITOkSlbUw", "name": "Donish Coffee Company Kagurazaka", "address": "新宿区袋町５−１ FARO神楽坂 1F", "lat": 35.7012485, "lng": 139.7383258, "rating": 4.8, "user_ratings_total": 126, "business_status": "OPERATIONAL", "category": "dogfriendly"}, {"place_id": "ChIJRwuBZo2PGGAR5PgnUBBraBw", "name": "CRUISE AND THE CAFE", "address": "墨田区横網１丁目２−１３ ヒューリック両国リバーセンター1F", "lat": 35.6975275, "lng": 139.7922647, "rating": 4.3, "user_ratings_total": 14, "business_status": "OPERATIONAL", "category": "dogfriendly"}, {"place_id": "ChIJayBUwZ-OGGARqlFeWsq3QN0", "name": "フクロウの巣カフェ", "address": "台東区上野４丁目５−１１ 安富ビル 3F", "lat": 35.70886, "lng": 139.7739432, "rating": 4, "user_ratings_total": 395, "business_status": "OPERATIONAL", "category": "dogfriendly"}, {"place_id": "ChIJZb3xUaCJGGARf77Z0AXYGS4", "name": "Cafe&Deli Soramame食堂 住吉", "address": "江東区海辺５丁目５−１５ エコグリーン", "lat": 35.6796318, "lng": 139.8191359, "rating": 5, "user_ratings_total": 30, "business_status": "OPERATIONAL", "category": "dogfriendly"}, {"place_id": "ChIJz-YdI4iJGGARgqZ3x7yMKzA", "name": "Coffee Stand OZ", "address": "江東区白河２丁目４−１２", "lat": 35.6813297, "lng": 139.8028475, "rating": 4.8, "user_ratings_total": 65, "business_status": "OPERATIONAL", "category": "dogfriendly"}, {"place_id": "ChIJg6NzjRaJGGARgWvtz_x7gcc", "name": "スクエアコーヒーロースター （SQUARE Coffee Roaster）", "address": "墨田区緑１丁目１４−９ 岡ビル 1F・2F", "lat": 35.6945261, "lng": 139.8000503, "rating": 4.5, "user_ratings_total": 68, "business_status": "OPERATIONAL", "category": "dogfriendly"}, {"place_id": "ChIJRT4XOQCJGGARPjYppEZH7WU", "name": "CAFE GRANDDAD", "address": "墨田区菊川３丁目１４−３", "lat": 35.6888604, "lng": 139.8084338, "rating": 4.8, "user_ratings_total": 56, "business_status": "OPERATIONAL", "category": "dogfriendly"}, {"place_id": "ChIJTRUrhfSJGGARrwwHU2jaDOY", "name": "TRI-Tech TOKYO", "address": "江東区森下５丁目１９−１８ 清水マンション 1F", "lat": 35.6859305, "lng": 139.8071877, "rating": 4.8, "user_ratings_total": 46, "business_status": "OPERATIONAL", "category": "dogfriendly"}, {"place_id": "ChIJG4Pc_suPGGARoon7pGqLRYI", "name": "ENRICH", "address": "墨田区業平４丁目１５−９ 三谷ビル 1F", "lat": 35.7083611, "lng": 139.8143919, "rating": 4.6, "user_ratings_total": 98, "business_status": "OPERATIONAL", "category": "dogfriendly"}, {"place_id": "ChIJ9XZUnhmJGGARGheKax-Rbww", "name": "ANEA CAFE MONNAKA Village", "address": "江東区富岡２丁目９−１１", "lat": 35.6720914, "lng": 139.8018228, "rating": 3.9, "user_ratings_total": 132, "business_status": "OPERATIONAL", "category": "dogfriendly"}, {"place_id": "ChIJr535Im6PGGARKVQn96CKRLw", "name": "真美ぃ庵", "address": "墨田区文花３丁目９−１", "lat": 35.7126013, "lng": 139.8256406, "rating": 4.5, "user_ratings_total": 18, "business_status": "OPERATIONAL", "category": "dogfriendly"}, {"place_id": "ChIJs3bozRCJGGARRPXFsQvFAiY", "name": "CAFE TANTON", "address": "江東区三好２丁目９−９ ブルーウッド三好 103", "lat": 35.6797489, "lng": 139.8026918, "rating": 4.4, "user_ratings_total": 156, "business_status": "OPERATIONAL", "category": "dogfriendly"}, {"place_id": "ChIJFeDb0LaJGGARuDhsaqa4nOE", "name": "PARK STAND TOKYO 木場", "address": "江東区平野３丁目１−１２", "lat": 35.6761583, "lng": 139.8066028, "rating": 4.3, "user_ratings_total": 219, "business_status": "OPERATIONAL", "category": "dogfriendly"}, {"place_id": "ChIJP3RaaPOJGGAR5l6miG5J7gU", "name": "BAKU Coffee Roasters 莫珈琲焙煎所", "address": "江東区富岡１丁目２１−１１ 行平コーポラス 103", "lat": 35.6706101, "lng": 139.8004228, "rating": 4.3, "user_ratings_total": 305, "business_status": "OPERATIONAL", "category": "dogfriendly"}, {"place_id": "ChIJFeV-Z-aJGGARJtk2EVh5yZg", "name": "Park Community KIBACO", "address": "江東区木場５丁目７", "lat": 35.6722078, "lng": 139.8088485, "rating": 4, "user_ratings_total": 222, "business_status": "OPERATIONAL", "category": "dogfriendly"}, {"place_id": "ChIJ7SoLkR6MGGAR47LHqVbSuy4", "name": "ねこ・ジャララ東京", "address": "千代田区外神田３丁目５−５ 末広町ハイム １Ｆ", "lat": 35.7018698, "lng": 139.7694809, "rating": 4.3, "user_ratings_total": 298, "business_status": "OPERATIONAL", "category": "dogfriendly"}, {"place_id": "ChIJwd_A-hmLGGARTIjQBtqL6Dw", "name": "BUG Cafe", "address": "千代田区丸の内１丁目９−２ グラントウキョウサウスタワー 1階", "lat": 35.678574, "lng": 139.7672846, "rating": 3.9, "user_ratings_total": 95, "business_status": "OPERATIONAL", "category": "dogfriendly"}, {"place_id": "ChIJoTAju_-PGGAR85FjwSBmkFY", "name": "nicocafe 328 ニコカフェ328", "address": "台東区浅草６丁目２２−１１", "lat": 35.7178142, "lng": 139.8016314, "rating": 4.4, "user_ratings_total": 51, "business_status": "OPERATIONAL", "category": "dogfriendly"}, {"place_id": "ChIJ80oGGBSPGGARD3AkrIoHGD0", "name": "Quebom！ Riverside Café e Bar（キボン！リバーサイドカフェ エ バー）", "address": "墨田区吾妻橋１丁目２３−8先", "lat": 35.7104635, "lng": 139.8006796, "rating": 4.7, "user_ratings_total": 60, "business_status": "OPERATIONAL", "category": "dogfriendly"}, {"place_id": "ChIJ07jLjxCJGGARhN7pyU7GNeY", "name": "カフェ・パークサイド", "address": "江東区亀戸９丁目３６−１４", "lat": 35.6985007, "lng": 139.8385079, "rating": 4.3, "user_ratings_total": 28, "business_status": "OPERATIONAL", "category": "dogfriendly"}, {"place_id": "ChIJlw4NXSSPGGARd3RMgHTMJXs", "name": "Egoland Cafe Akihabara", "address": "千代田区神田佐久間町４丁目７−３ 1F", "lat": 35.697495, "lng": 139.7793661, "rating": 4.7, "user_ratings_total": 293, "business_status": "OPERATIONAL", "category": "dogfriendly"}, {"place_id": "ChIJu6z_zVCPGGARqt1VXncQtbw", "name": "街と山", "address": "墨田区吾妻橋２丁目２−６ 1階", "lat": 35.7083967, "lng": 139.8038264, "rating": 4.6, "user_ratings_total": 111, "business_status": "OPERATIONAL", "category": "dogfriendly"}, {"place_id": "ChIJZf6-ww6PGGARrUhv-qtWv0g", "name": "COFFEE BAR 桟敷", "address": "台東区浅草２丁目１６−２ 九倶楽部 １F", "lat": 35.7157884, "lng": 139.7939677, "rating": 4.2, "user_ratings_total": 135, "business_status": "OPERATIONAL", "category": "dogfriendly"}, {"place_id": "ChIJKxhJDy6PGGAR8TIqaQH4C2g", "name": "すみまめカフェ", "address": "墨田区京島３丁目３９−８", "lat": 35.7139166, "lng": 139.8233914, "rating": 4, "user_ratings_total": 61, "business_status": "OPERATIONAL", "category": "dogfriendly"}, {"place_id": "ChIJ3fvqQDGPGGARFY0lP4Pc_n8", "name": "ADAGIO CAFE", "address": "墨田区向島１丁目７−８ 菊地ビル 1F", "lat": 35.711763, "lng": 139.8047754, "rating": 4.2, "user_ratings_total": 109, "business_status": "OPERATIONAL", "category": "dogfriendly"}, {"place_id": "ChIJIf3QgciPGGAR1m5oEEISwCk", "name": "SEVEN’S CAFE セブンズ カフェ", "address": "墨田区京島３丁目５２−２", "lat": 35.7146369, "lng": 139.8239603, "rating": 4.5, "user_ratings_total": 106, "business_status": "OPERATIONAL", "category": "dogfriendly"}, {"place_id": "ChIJg3F0FZiJGGARbTRFMeX1U6M", "name": "Farside ファーサイド", "address": "江東区亀戸６丁目２０−８−１０４", "lat": 35.6957001, "lng": 139.8281797, "rating": 4.5, "user_ratings_total": 87, "business_status": "OPERATIONAL", "category": "dogfriendly"}, {"place_id": "ChIJB_4e6r-JGGARQnPhmEyBN_E", "name": "SIT Global Caffe empowered by Segafredo", "address": "江東区豊洲３丁目７−５ 芝浦工業大学 豊洲キャンパス 本部棟１F", "lat": 35.659931, "lng": 139.7945683, "rating": 4.3, "user_ratings_total": 36, "business_status": "OPERATIONAL", "category": "dogfriendly"}, {"place_id": "ChIJzRqUwRyJGGARtXNwh30rzm4", "name": "The Cream of the Crop Coffee", "address": "江東区白河４丁目５−４", "lat": 35.6818401, "lng": 139.8098439, "rating": 4.2, "user_ratings_total": 350, "business_status": "OPERATIONAL", "category": "dogfriendly"}, {"place_id": "ChIJq6pvtt-OGGARqFdtX_i_EQk", "name": "CATS&DOGS CAFE", "address": "墨田区向島５丁目４８−１", "lat": 35.7213359, "lng": 139.8115826, "rating": 3.6, "user_ratings_total": 62, "business_status": "OPERATIONAL", "category": "dogfriendly"}, {"place_id": "ChIJx0YfggGPGGARxC5wrIo3Gxk", "name": "Sukemasa coffee", "address": "台東区浅草２丁目２９−２ 102", "lat": 35.7152417, "lng": 139.7953934, "rating": 4.3, "user_ratings_total": 520, "business_status": "OPERATIONAL", "category": "dogfriendly"}, {"place_id": "ChIJs6Vi_MCJGGARj_URqnaCu_U", "name": "オーテル トウキョウ", "address": "江東区大島９丁目１０−６ 旧中川川の駅", "lat": 35.6874623, "lng": 139.84663, "rating": 4.5, "user_ratings_total": 185, "business_status": "OPERATIONAL", "category": "dogfriendly"}, {"place_id": "ChIJVXwkIjiPGGARYgi8tICXAx0", "name": "雨虹", "address": "台東区今戸２丁目１２−６", "lat": 35.7212328, "lng": 139.8027196, "rating": 3.5, "user_ratings_total": 62, "business_status": "OPERATIONAL", "category": "dogfriendly"}, {"place_id": "ChIJecJyXcmJGGAR3LjIBTIdWZg", "name": "le bois", "address": "江東区三好３丁目１−１４", "lat": 35.6798164, "lng": 139.8047355, "rating": 4.3, "user_ratings_total": 99, "business_status": "OPERATIONAL", "category": "dogfriendly"}, {"place_id": "ChIJNbkN2niPGGARDQvMU5hIR8g", "name": "Goldenhood", "address": "中央区日本橋横山町８−６", "lat": 35.6932483, "lng": 139.7840619, "rating": 4.3, "user_ratings_total": 83, "business_status": "OPERATIONAL", "category": "dogfriendly"}, {"place_id": "ChIJNykhlbyJGGARlrayNYD5AVY", "name": "LE CAFE KODEN", "address": "江東区冬木６−２２ ロンキン東亜", "lat": 35.6733253, "lng": 139.8013389, "rating": 4.6, "user_ratings_total": 68, "business_status": "OPERATIONAL", "category": "dogfriendly"}, {"place_id": "ChIJ4YOAWYGPGGARPaomfoQDHiM", "name": "おきまろ", "address": "墨田区業平１丁目１８−４", "lat": 35.7092007, "lng": 139.808772, "rating": 4.5, "user_ratings_total": 584, "business_status": "OPERATIONAL", "category": "dogfriendly"}, {"place_id": "ChIJq5uMyvKNGGARhH-L7g4m4oQ", "name": "CAFE OASIS秋葉原店", "address": "千代田区外神田６丁目１４−１２ 1F", "lat": 35.7031162, "lng": 139.771378, "rating": 4.1, "user_ratings_total": 342, "business_status": "OPERATIONAL", "category": "dogfriendly"}, {"place_id": "ChIJiQTBlymJGGARWN_w0nbPL9w", "name": "もんなか がっちゃん's CAFE ＆ SPACE", "address": "江東区冬木２１−２１", "lat": 35.67540049999999, "lng": 139.8019916, "rating": 4.4, "user_ratings_total": 13, "business_status": "OPERATIONAL", "category": "dogfriendly"}, {"place_id": "ChIJ3StVSQCJGGAREUVv1wAkdcI", "name": "MMC", "address": "墨田区亀沢２丁目１０−７", "lat": 35.6970046, "lng": 139.8026522, "rating": 4.2, "user_ratings_total": 113, "business_status": "OPERATIONAL", "category": "dogfriendly"}, {"place_id": "ChIJE4ymeUyLGGARbXEtaPnC88w", "name": "Matcha cafe侘び寂び -wabisabi- 東銀座築地店", "address": "中央区築地３丁目１７−１０ BANHOTEL 11F", "lat": 35.6659831, "lng": 139.7715563, "rating": 4.9, "user_ratings_total": 2142, "business_status": "OPERATIONAL", "category": "dogfriendly"}, {"place_id": "ChIJM5q99bmJGGARQpj2lHdLpW4", "name": "STILE'S CAFE", "address": "中央区勝どき４丁目１３−４ 1F", "lat": 35.6566553, "lng": 139.7749027, "rating": 4, "user_ratings_total": 38, "business_status": "OPERATIONAL", "category": "dogfriendly"}, {"place_id": "ChIJZakqaQCJGGARfKC9IEBk_Dc", "name": "PIZZA&CAFE TANTON", "address": "江東区森下１丁目１８−４ Ｋ・Ｓグランディールワタナベ", "lat": 35.6889574, "lng": 139.7976619, "rating": 4.8, "user_ratings_total": 28, "business_status": "OPERATIONAL", "category": "dogfriendly"}, {"place_id": "ChIJVbGNx5WOGGARxzqEzixl4G4", "name": "カフェ・オトノヴァ", "address": "台東区西浅草３丁目１０−４", "lat": 35.71535650000001, "lng": 139.7894257, "rating": 4, "user_ratings_total": 418, "business_status": "OPERATIONAL", "category": "dogfriendly"}, {"place_id": "ChIJP4oHgeaJGGARr2H5gQfq-vY", "name": "est tokyo uno et001", "address": "江東区清澄３丁目４−１８ パークサイド清澄第１ 1F", "lat": 35.6814029, "lng": 139.7986035, "rating": 3.7, "user_ratings_total": 178, "business_status": "OPERATIONAL", "category": "dogfriendly"}, {"place_id": "ChIJc1QS5o-OGGARgOTY8SkN8Cw", "name": "iriya plus cafe（イリヤプラスカフェ）", "address": "台東区下谷２丁目９−１０", "lat": 35.721258, "lng": 139.7841115, "rating": 4.2, "user_ratings_total": 553, "business_status": "OPERATIONAL", "category": "dogfriendly"}, {"place_id": "ChIJ__-LrdGOGGAR_o4bcObYezw", "name": "ブラウン喫茶デルコッファー", "address": "墨田区吾妻橋３丁目１−１０ ローヤルジュン １F", "lat": 35.7084846, "lng": 139.8054947, "rating": 4.2, "user_ratings_total": 315, "business_status": "OPERATIONAL", "category": "dogfriendly"}, {"place_id": "ChIJx7HLGROJGGARv94YgVIqijc", "name": "カフェ東亜サプライ", "address": "2F, １丁目-７-９ 門前仲町 江東区", "lat": 35.6727071, "lng": 139.7947588, "rating": 4.1, "user_ratings_total": 485, "business_status": "OPERATIONAL", "category": "dogfriendly"}, {"place_id": "ChIJbdCh6LaOGGAR66AikEbVY7g", "name": "SQUARE cafe 蔵前店", "address": "台東区蔵前２丁目２−６ １Ｆ・Ｂ１Ｆ", "lat": 35.7021029, "lng": 139.7898871, "rating": 4, "user_ratings_total": 394, "business_status": "OPERATIONAL", "category": "dogfriendly"}, {"place_id": "ChIJJ6FduAeJGGARjUrRBq5W_Nw", "name": "BERTH COFFEE ROASTERY \"Haru\"", "address": "墨田区横川２丁目７−２", "lat": 35.7037057, "lng": 139.8115168, "rating": 4.5, "user_ratings_total": 220, "business_status": "OPERATIONAL", "category": "dogfriendly"}, {"place_id": "ChIJA0vGNcWJGGARQbJ6AT2K33o", "name": "soranof", "address": "江戸川区平井１丁目２−１５", "lat": 35.7002556, "lng": 139.848357, "rating": 4.3, "user_ratings_total": 61, "business_status": "OPERATIONAL", "category": "dogfriendly"}, {"place_id": "ChIJB_N7HUSPGGARiX3BOOoCO1k", "name": "Petika", "address": "台東区浅草３丁目２６−１０ 1F", "lat": 35.7166311, "lng": 139.7983022, "rating": 4.2, "user_ratings_total": 104, "business_status": "OPERATIONAL", "category": "dogfriendly"}, {"place_id": "ChIJRbyY5S2JGGARVqfT9oVdyJM", "name": "Kraft coffee クラフトコーヒー", "address": "江東区清澄２丁目９−１４ 1F", "lat": 35.6819433, "lng": 139.7950292, "rating": 4.3, "user_ratings_total": 119, "business_status": "OPERATIONAL", "category": "dogfriendly"}, {"place_id": "ChIJGfYJ0M2PGGARgm5dUoIa1Ik", "name": "お濃茶スイーツ専門店 雷一茶 伝法院通り店", "address": "台東区浅草２丁目２−２", "lat": 35.7128737, "lng": 139.7968771, "rating": 4.3, "user_ratings_total": 374, "business_status": "OPERATIONAL", "category": "dogfriendly"}, {"place_id": "ChIJ92c8x1WJGGARY1saQ19BNvc", "name": "IL BACARO ALMA", "address": "中央区日本橋室町１丁目５−５ コレド室町３ 1F", "lat": 35.68632059999999, "lng": 139.7745584, "rating": 3.6, "user_ratings_total": 255, "business_status": "OPERATIONAL", "category": "dogfriendly"}, {"place_id": "ChIJFzhmY8iPGGAR9dKGmfovTtA", "name": "[Cafe & Lunch] TOE LIBRARY PARC", "address": "台東区松が谷３丁目３−１４", "lat": 35.7158361, "lng": 139.7873711, "rating": 4.5, "user_ratings_total": 127, "business_status": "OPERATIONAL", "category": "dogfriendly"}, {"place_id": "ChIJK1-8IwCNGGARNhz_8Hg7hoc", "name": "&HereCafe", "address": "台東区上野２丁目１１−２ &HereTOKYO UENO1階", "lat": 35.7092679, "lng": 139.7710399, "rating": 3.9, "user_ratings_total": 29, "business_status": "OPERATIONAL", "category": "dogfriendly"}, {"place_id": "ChIJyQWm1MaOGGARZojTN0Z3AO4", "name": "カフェ・ド・ラーク", "address": "台東区浅草１丁目２０−１２", "lat": 35.7118141, "lng": 139.796278, "rating": 4.6, "user_ratings_total": 323, "business_status": "OPERATIONAL", "category": "dogfriendly"}, {"place_id": "ChIJZ52Lq4OJGGARPTDv5kFrlTM", "name": "Royal Garden Cafe & Tavern 豊洲店", "address": "江東区豊洲２丁目２−１ アーバンドック ららぽーと豊洲３ １Ｆ", "lat": 35.6547738, "lng": 139.7947785, "rating": 3.8, "user_ratings_total": 195, "business_status": "OPERATIONAL", "category": "dogfriendly"}, {"place_id": "ChIJVVUhsuqOGGARwM482HjpE_0", "name": "CafeRest Cuzn Homeground", "address": "台東区浅草２丁目１７−９", "lat": 35.7160338, "lng": 139.7936705, "rating": 4.4, "user_ratings_total": 224, "business_status": "OPERATIONAL", "category": "dogfriendly"}, {"place_id": "ChIJHffHTC6JGGARUgnJHqpBQa8", "name": "マキネスティコーヒー （Macchinesti Coffee）", "address": "墨田区緑３丁目１１−５", "lat": 35.6948364, "lng": 139.8051772, "rating": 4.5, "user_ratings_total": 302, "business_status": "OPERATIONAL", "category": "dogfriendly"}, {"place_id": "ChIJyR8JLbKPGGAR5KePYCb2ueA", "name": "HUBHUB御徒町", "address": "台東区上野５丁目１０−６", "lat": 35.7047353, "lng": 139.7742103, "rating": 4.9, "user_ratings_total": 53, "business_status": "OPERATIONAL", "category": "dogfriendly"}, {"place_id": "ChIJEaCw2OuLGGAReKrVM7-ZB4U", "name": "バイロンベイコーヒージャパン 日本橋店", "address": "中央区日本橋本町１丁目５−２", "lat": 35.6865877, "lng": 139.7755474, "rating": 4.2, "user_ratings_total": 444, "business_status": "OPERATIONAL", "category": "dogfriendly"}, {"place_id": "ChIJsWyjIhKJGGARbQ8kmD1DEiA", "name": "MONZ CAFE", "address": "江東区富岡１丁目１４−５", "lat": 35.6722647, "lng": 139.7978698, "rating": 4.1, "user_ratings_total": 730, "business_status": "OPERATIONAL", "category": "dogfriendly"}, {"place_id": "ChIJlyheMjGPGGAR1Y9NPLMqbio", "name": "のたじカフェ", "address": "台東区浅草１丁目４０−２", "lat": 35.7126988, "lng": 139.7941161, "rating": 5, "user_ratings_total": 2, "business_status": "OPERATIONAL", "category": "dogfriendly"}, {"place_id": "ChIJ79RPfxqJGGAR6D7K9kqHet4", "name": "sunday zoo coffee & beans", "address": "江東区平野２丁目１７−４ 藤ビル 102", "lat": 35.6760047, "lng": 139.8035731, "rating": 4.7, "user_ratings_total": 143, "business_status": "OPERATIONAL", "category": "dogfriendly"}, {"place_id": "ChIJ_9UzPeqOGGARZ25b9xRjyZ0", "name": "cafe michikusa", "address": "台東区浅草４丁目６−５ 岩岡ビル 1階", "lat": 35.718321, "lng": 139.7977984, "rating": 4.6, "user_ratings_total": 255, "business_status": "OPERATIONAL", "category": "dogfriendly"}, {"place_id": "ChIJXT0QJCmMGGARxP13JnNAiKY", "name": "グラフィー 根津 カフェアンドラウンジ（GRAPHY 根津 CAFE & LOUNGE）", "address": "台東区池之端４丁目５−１０ HOTEL GRAPHY 根津 １階", "lat": 35.7171868, "lng": 139.7685725, "rating": 4, "user_ratings_total": 43, "business_status": "OPERATIONAL", "category": "dogfriendly"}, {"place_id": "ChIJCRLt06qJGGARBUGERUQnMhk", "name": "goodcoffee 東陽町 by goodroom", "address": "江東区南砂２丁目５−１４ 「Toyocho green＋」1F", "lat": 35.67000549999999, "lng": 139.8197264, "rating": 4.1, "user_ratings_total": 116, "business_status": "OPERATIONAL", "category": "dogfriendly"}, {"place_id": "ChIJF9GsdB2MGGARVpytiBrjLjk", "name": "カフェモコ", "address": "千代田区外神田１丁目１２−２", "lat": 35.6993963, "lng": 139.771566, "rating": 3.8, "user_ratings_total": 825, "business_status": "OPERATIONAL", "category": "dogfriendly"}, {"place_id": "ChIJdSMDRgCJGGAREjl8x5c1WRY", "name": "Fujino cafe&food", "address": "中央区築地３丁目３−９", "lat": 35.6689827, "lng": 139.7740123, "rating": 4.9, "user_ratings_total": 83, "business_status": "OPERATIONAL", "category": "dogfriendly"}, {"place_id": "ChIJDXo14QuLGGARNiiaEu6AS5s", "name": "BON CAFE coffee&tea", "address": "品川区西品川３ 1F", "lat": 35.616396, "lng": 139.7260841, "rating": 4.7, "user_ratings_total": 11, "business_status": "OPERATIONAL", "category": "dogfriendly"}, {"place_id": "ChIJWWsMMACLGGARtZ5CNISBhZ8", "name": "サロン ド テ サレ", "address": "目黒区洗足２丁目２６−１６ the trias senzoku", "lat": 35.6100112, "lng": 139.6949991, "rating": 4.6, "user_ratings_total": 27, "business_status": "OPERATIONAL", "category": "dogfriendly"}, {"place_id": "ChIJL7JWNK-LGGARNbAHNwDTJYw", "name": "Mary Jane", "address": "渋谷区代官山町２０−２３ フォレストゲート代官山 1F", "lat": 35.6483765, "lng": 139.7023657, "rating": 3.6, "user_ratings_total": 81, "business_status": "OPERATIONAL", "category": "dogfriendly"}, {"place_id": "ChIJnSwr2dZhGGARpRmMBfLo56c", "name": "ペット可！ママの手作りハンバーグ は.や.ち.ゃ.ん.ち（看板猫バサラちゃんち）", "address": "大田区千鳥２丁目３６−１", "lat": 35.5685981, "lng": 139.6928683, "rating": 4.4, "user_ratings_total": 54, "business_status": "OPERATIONAL", "category": "dogfriendly"}, {"place_id": "ChIJyZ_19FX1GGARW9pUXLmw038", "name": "Specialty coffee&Food mamocafe", "address": "目黒区緑が丘２丁目４−５", "lat": 35.6089776, "lng": 139.6755968, "rating": 4.5, "user_ratings_total": 31, "business_status": "OPERATIONAL", "category": "dogfriendly"}, {"place_id": "ChIJR_Hlu_mLGGAR95C8c6bu8oU", "name": "BLAZE FIT. CAFE", "address": "大田区中馬込２丁目８−１ 日経エスプラナード 1F", "lat": 35.5969265, "lng": 139.7084459, "rating": 4.8, "user_ratings_total": 50, "business_status": "OPERATIONAL", "category": "dogfriendly"}, {"place_id": "ChIJbaE92FZhGGARfIqfM4JI6g0", "name": "Cafe＆Lounge h.t.s", "address": "大田区大森東４丁目３６−１６ メゾン・ド・シャルマン 1F", "lat": 35.5663151, "lng": 139.7366922, "rating": 4.4, "user_ratings_total": 72, "business_status": "OPERATIONAL", "category": "dogfriendly"}, {"place_id": "ChIJuVlycSqLGGARq4zhf6lf6Ag", "name": "HONEYCOMB COFFEE", "address": "品川区大崎３丁目１５−２３ 鈴木ビル 1F", "lat": 35.6187749, "lng": 139.7225518, "rating": 4.4, "user_ratings_total": 138, "business_status": "OPERATIONAL", "category": "dogfriendly"}, {"place_id": "ChIJtWhsXHyKGGAREkCFAZqBT9A", "name": "ラックンドック", "address": "品川区東大井５丁目１７−７ 三興ビル 三", "lat": 35.6067563, "lng": 139.7355319, "rating": 4.6, "user_ratings_total": 18, "business_status": "OPERATIONAL", "category": "dogfriendly"}, {"place_id": "ChIJewUPegBhGGARpD7aSZfQFCg", "name": "MR. HIPPO COFFEE 立会川店", "address": "品川区東大井２丁目２３−２", "lat": 35.5983058, "lng": 139.7383076, "rating": 4.3, "user_ratings_total": 43, "business_status": "OPERATIONAL", "category": "dogfriendly"}, {"place_id": "ChIJJdtbZsKLGGAR_SIbsW76rNs", "name": "AND ONE カフェ&ダイニング", "address": "品川区小山６丁目１０−５", "lat": 35.613908, "lng": 139.6984419, "rating": 4.7, "user_ratings_total": 20, "business_status": "OPERATIONAL", "category": "dogfriendly"}, {"place_id": "ChIJXbYNlMOLGGARH_DYXw_f8j4", "name": "cafeわんこのしっぽ", "address": "大田区中馬込２丁目２３−７ 2F", "lat": 35.5943404, "lng": 139.7111035, "rating": 0, "user_ratings_total": 0, "business_status": "OPERATIONAL", "category": "dogfriendly"}, {"place_id": "ChIJc32Tlv9hGGARir0AscRKDeo", "name": "god dog", "address": "品川区南大井６丁目１７−１８ フルレジデンス神名", "lat": 35.5902083, "lng": 139.7296599, "rating": 4.2, "user_ratings_total": 47, "business_status": "OPERATIONAL", "category": "dogfriendly"}, {"place_id": "ChIJFWKPTLf0GGARNMScaGOa05s", "name": "犬猫食堂 紫陽花", "address": "世田谷区下馬１丁目２５−１６ １F Garden OHANA", "lat": 35.6382747, "lng": 139.6818866, "rating": 4.1, "user_ratings_total": 89, "business_status": "OPERATIONAL", "category": "dogfriendly"}, {"place_id": "ChIJFbk3W_eJGGARlgSyx-46sR4", "name": "DOG DEPT お台場東京ビーチ店", "address": "港区台場１丁目６−１ デックス東京ビーチ 1F", "lat": 35.6297348, "lng": 139.7762994, "rating": 3.9, "user_ratings_total": 196, "business_status": "OPERATIONAL", "category": "dogfriendly"}, {"place_id": "ChIJlUW9V1j1GGARjiyt6B-JcPc", "name": "カフェ ポルカ", "address": "大田区鵜の木３丁目２−１５ ＮＣ ＡＰＡＲＴＭＥＮＴ", "lat": 35.5791392, "lng": 139.6784535, "rating": 4.5, "user_ratings_total": 20, "business_status": "OPERATIONAL", "category": "dogfriendly"}, {"place_id": "ChIJryWTheCKGGARziLe0srNwfU", "name": "ChocoLapin", "address": "品川区西五反田４丁目２８−１４", "lat": 35.625012, "lng": 139.7122286, "rating": 4, "user_ratings_total": 53, "business_status": "OPERATIONAL", "category": "dogfriendly"}, {"place_id": "ChIJm0aXw9eKGGARxHlH2DZKTe4", "name": "SIC cafe&bar", "address": "目黒区目黒本町５丁目１６−２", "lat": 35.6219251, "lng": 139.699957, "rating": 4.4, "user_ratings_total": 82, "business_status": "OPERATIONAL", "category": "dogfriendly"}, {"place_id": "ChIJ3Y3vFACLGGARE_CRSZrVxOk", "name": "cafe MJ", "address": "港区麻布十番２丁目１９−１０ 桂麻布十番ビル 7階", "lat": 35.6548259, "lng": 139.7359937, "rating": 5, "user_ratings_total": 7, "business_status": "OPERATIONAL", "category": "dogfriendly"}, {"place_id": "ChIJSzrIQd2LGGARGHGOXXi-Iec", "name": "代官山vegewest Cafe&WineBar", "address": "渋谷区代官山町１３−４ 1F", "lat": 35.6498437, "lng": 139.70448, "rating": 4.5, "user_ratings_total": 62, "business_status": "OPERATIONAL", "category": "dogfriendly"}, {"place_id": "ChIJ6aiCYmOLGGARLW8Xbd0VnQg", "name": "muf｜生マフィンと時々、お花。", "address": "品川区戸越６丁目１９−１６ 1F", "lat": 35.6071579, "lng": 139.7178057, "rating": 4.8, "user_ratings_total": 77, "business_status": "OPERATIONAL", "category": "dogfriendly"}, {"place_id": "ChIJpfLrCgCLGGAR6xc7NPz0wjw", "name": "HALO", "address": "ハイツ自然園, ５丁目-７-３３ 中目黒 目黒区", "lat": 35.6355947, "lng": 139.7013719, "rating": 4.2, "user_ratings_total": 37, "business_status": "OPERATIONAL", "category": "dogfriendly"}, {"place_id": "ChIJ26XzMPn1GGARV6SiEJFJcSI", "name": "L.A.GARAGE3 学芸大学店", "address": "目黒区鷹番２丁目１５−１６ FLAG鷹番 1F", "lat": 35.6295189, "lng": 139.6871232, "rating": 4, "user_ratings_total": 135, "business_status": "OPERATIONAL", "category": "dogfriendly"}, {"place_id": "ChIJJzHgcRpgGGARgtBzqOPd24Q", "name": "お休み処", "address": "大田区池上１丁目１−２−１", "lat": 35.57931, "lng": 139.704814, "rating": 3.9, "user_ratings_total": 100, "business_status": "OPERATIONAL", "category": "dogfriendly"}, {"place_id": "ChIJzf9YumhhGGARFMssGKIHNY8", "name": "蒲田カフェ", "address": "大田区西蒲田５丁目１４−５", "lat": 35.5661486, "lng": 139.7161395, "rating": 4.5, "user_ratings_total": 587, "business_status": "OPERATIONAL", "category": "dogfriendly"}, {"place_id": "ChIJ198Tta-LGGAR4FnwpMIinmw", "name": "Repos Cafe&Shisha", "address": "港区麻布十番３−２ 9LA CITY 麻布十番 NEOCE 301", "lat": 35.6533982, "lng": 139.7361449, "rating": 4.8, "user_ratings_total": 18, "business_status": "OPERATIONAL", "category": "dogfriendly"}, {"place_id": "ChIJzTHCLTOLGGAR8nbn_M1U02g", "name": "Spread", "address": "目黒区目黒本町３丁目３−２", "lat": 35.6218325, "lng": 139.7027915, "rating": 3.7, "user_ratings_total": 100, "business_status": "OPERATIONAL", "category": "dogfriendly"}, {"place_id": "ChIJlRk9p7r0GGARbWhKuLF3JMc", "name": "FUNGO三宿本店", "address": "世田谷区下馬１丁目４０−１０ 1F", "lat": 35.6417565, "lng": 139.6810237, "rating": 4, "user_ratings_total": 503, "business_status": "OPERATIONAL", "category": "dogfriendly"}, {"place_id": "ChIJfS-M9QiLGGARqYQvEveky0Y", "name": "VERVE COFFEE ROASTERS YEBISU GARDEN PLACE", "address": "渋谷区恵比寿４丁目２０−７ ガーデンプレイス センタープラザ １F", "lat": 35.6428601, "lng": 139.7137466, "rating": 4.3, "user_ratings_total": 318, "business_status": "OPERATIONAL", "category": "dogfriendly"}, {"place_id": "ChIJgeR4zo2LGGARQUurnEqSUCI", "name": "禁断果実 kindankajitsu", "address": "目黒区中目黒２丁目７−７", "lat": 35.6377757, "lng": 139.7053797, "rating": 4.6, "user_ratings_total": 251, "business_status": "OPERATIONAL", "category": "dogfriendly"}, {"place_id": "ChIJn_IC6x1gGGARZ4PDAu0dZFs", "name": "Cheval Café シュヴァルカフェ", "address": "大田区西馬込２丁目３−１ Cheval Café シュヴァルカフェ", "lat": 35.5871768, "lng": 139.7052822, "rating": 4.3, "user_ratings_total": 198, "business_status": "OPERATIONAL", "category": "dogfriendly"}, {"place_id": "ChIJf4gQj1GLGGARfzl_PKjB2QU", "name": "グリーンカフェ 西郷山", "address": "目黒区青葉台２丁目１０−７", "lat": 35.6505628, "lng": 139.6966013, "rating": 4.2, "user_ratings_total": 127, "business_status": "OPERATIONAL", "category": "dogfriendly"}, {"place_id": "ChIJyUgMwXCLGGARZtNRAmoi4x8", "name": "kuku cafe", "address": "目黒区祐天寺２丁目５−５", "lat": 35.6375907, "lng": 139.694207, "rating": 4, "user_ratings_total": 52, "business_status": "OPERATIONAL", "category": "dogfriendly"}, {"place_id": "ChIJHyXieQWLGGARq8IkNE39H30", "name": "Dango Chaya So-so", "address": "渋谷区代官山町１２−１８ ＩＮＯビル 1F", "lat": 35.6507419, "lng": 139.7033947, "rating": 4.7, "user_ratings_total": 66, "business_status": "OPERATIONAL", "category": "dogfriendly"}, {"place_id": "ChIJXTSDG_D1GGARHoZK59NISa4", "name": "P.S. COFFEE(ピーエスコーヒー)", "address": "目黒区鷹番２丁目４−１１", "lat": 35.6288605, "lng": 139.688914, "rating": 4, "user_ratings_total": 155, "business_status": "OPERATIONAL", "category": "dogfriendly"}, {"place_id": "ChIJKe20JvOLGGARoWlFzY9_ZlM", "name": "& OIMO TOKYO CAFE 中目黒店", "address": "目黒区青葉台１丁目１４−４ nakameguro 1F", "lat": 35.6481282, "lng": 139.6962256, "rating": 4.2, "user_ratings_total": 385, "business_status": "OPERATIONAL", "category": "dogfriendly"}, {"place_id": "ChIJFWJBq8j0GGARDAXnnYBWJV0", "name": "EMPORIO cafe&dining", "address": "目黒区鷹番３丁目２４−１５ エンポリオカフェ", "lat": 35.62906419999999, "lng": 139.681187, "rating": 3.9, "user_ratings_total": 190, "business_status": "OPERATIONAL", "category": "dogfriendly"}, {"place_id": "ChIJL8dbO_aJGGARtd4EYwcFDv0", "name": "Eggs 'n Things お台場店", "address": "港区台場１丁目７−１ 3F", "lat": 35.6284534, "lng": 139.7742795, "rating": 4.1, "user_ratings_total": 2008, "business_status": "OPERATIONAL", "category": "dogfriendly"}, {"place_id": "ChIJYw9uJA6LGGARkFTg5kX9F6Y", "name": "Café and Snack HARMONIA", "address": "港区南麻布１丁目６−５ 麻布十番ハルモニアビル", "lat": 35.6524778, "lng": 139.7358056, "rating": 4.3, "user_ratings_total": 29, "business_status": "OPERATIONAL", "category": "dogfriendly"}, {"place_id": "ChIJIwjDzOiLGGAR9ERBmG42eDg", "name": "Cafe Xperience", "address": "品川区小山２丁目１７−３６", "lat": 35.6203694, "lng": 139.7078905, "rating": 4.5, "user_ratings_total": 68, "business_status": "OPERATIONAL", "category": "dogfriendly"}, {"place_id": "ChIJL8dbO_aJGGARUZHAsC0Fd2Q", "name": "LONGBOARD CAFÉ", "address": "港区台場１丁目７−１ アクアシティお台場", "lat": 35.627556, "lng": 139.7725376, "rating": 3.2, "user_ratings_total": 207, "business_status": "OPERATIONAL", "category": "dogfriendly"}, {"place_id": "ChIJ9UOIeaiLGGARjdE9a1a_cc4", "name": "guenin cafe & bar", "address": "渋谷区恵比寿１丁目２６−１９ カラコル５ 1F", "lat": 35.64722, "lng": 139.7153418, "rating": 4.5, "user_ratings_total": 27, "business_status": "OPERATIONAL", "category": "dogfriendly"}, {"place_id": "ChIJnYjQRbn1GGARX8Z1KtsWr5g", "name": "H.A.L. cafe", "address": "目黒区大橋２丁目４−３", "lat": 35.65391049999999, "lng": 139.6890833, "rating": 4.6, "user_ratings_total": 1866, "business_status": "OPERATIONAL", "category": "dogfriendly"},